id,name,jl_number,longitude,latitude,ac_id
2,Anchuri,56,86.99334300000002,23.284466,928
3,Dhobargram,57,86.97898839999998,23.1789626,928
6,Dhulkumari,60,86.9436321,23.2797914,928
8,Nidaya,62,86.9611571,23.2712069,928
9,Papurdihi,63,86.97054279999998,23.2661821,928
11,Beharadihi,65,86.9886834,23.2568622,928
12,Nawdi,66,86.9886834,23.2657858,928
13,Balardihi,67,86.99868909999998,23.2570528,928
14,Badulara,68,87.0036911,23.2511987,928
15,Sanabandh,69,87.01119320000002,23.2453916,928
16,Jirabaid,70,87.07035049999998,22.9167065,927
17,Katgoria,71,87.25437020000003,23.4387002,929
18,Jamradihi,72,86.9946245,23.2394996,928
19,Ghughujan,73,86.991185,23.2390623,928
20,Jalhari,74,86.9886834,23.250913,928
23,Damragoria,77,86.97595109999996,23.250225600000004,928
24,Darpanagar,78,86.97116849999998,23.2416542,928
27,Dupsara,81,86.9611571,23.2474109,928
29,Pathakdihi,83,86.94863989999998,23.2560929,928
30,Pathrabaid,84,86.95615059999999,23.2651614,928
31,Bankata,85,86.99868909999998,22.9148971,927
34,Gonsaidihi,88,86.9649116,23.546358,923
35,Kenjakura,89,86.92171689999998,23.2696984,928
40,Molbana,94,86.929858,23.2601903,928
42,Kantakuli,96,86.9436321,23.2470725,928
44,Kamlagara,98,86.94112799999998,23.2321513,928
45,Kalpathar,99,86.9386238,23.226153600000004,928
47,Basulitara,101,86.9110688,23.2434642,928
49,Jambedia,103,87.0593037,23.3734537,929
51,Barabagan,105,86.91858540000001,23.2287385,928
54,Chingra,108,86.90605710000001,23.2076716,928
55,Bhalukbasa,109,86.8006916,23.1550072,924
56,Hetyashol,110,86.90605710000001,23.1927984,928
59,Khenkriara,113,86.91858540000001,23.2138656,928
62,Gangtora,116,87.37272359999999,23.2208999,934
63,Dhagaria,117,87.5061944,23.251012300000006,934
64,Banchingra,118,86.9317365,23.195529800000006,928
66,Chhendua,120,86.94989179999996,23.1951374,928
67,Chamkara,121,87.0105681,23.3413057,924
68,Fengabasa,122,86.96366009999998,23.2087888,928
70,Dinargan,124,86.94613609999998,23.2203498,928
72,Junkanali,126,86.94863989999998,23.2322966,928
73,Kendbona,127,87.0992548,23.4232693,923
75,Batdeuli,129,86.9686658,23.2326823,928
76,Purundihi,130,86.9686658,23.226733,928
77,Kumidya,131,86.9617829,23.2154458,928
78,Penchaldihi,132,86.973671,23.2208797,928
79,Siarbedya,133,86.91359820000002,22.8551749,926
80,Andharthol,134,86.973671,23.2000565,928
81,Sutijor,135,86.9680401,23.2021797,928
82,Shyamdanga,136,86.96428590000002,23.1976455,928
84,Shunukpahari,138,86.97304539999998,23.1844268,928
87,Chikchika,141,86.96366009999998,23.179041,928
88,Puramouli,142,86.9717941,23.168041100000003,928
89,Dhobagaon,143,86.9811778,23.1793762,928
92,Nayabadi,146,86.99055960000004,23.1654241,930
93,Sagunsara,147,86.991185,23.1706421,928
96,Khap,150,87.0011902,23.173807,928
97,Shushunia,151,87.006192,23.1798516,930
98,Dubraji,152,87.0143188,23.1852113,928
99,Helna,153,87.00431640000002,23.1820473,928
100,Fagua Kanali,154,86.9936865,23.1915139,928
101,Dumuriya,155,87.1054941,23.4620457,923
102,Chaturdihi,156,86.99181039999998,23.1981716,928
103,Supurdihi,157,86.9811778,23.200200100000004,928
104,Golamitara,158,86.98993420000002,23.207804,928
105,Taribaterdihi,159,86.98367979999998,23.2151216,928
106,Harumalliker Bankata,160,86.9805523,23.221755,928
108,Keranipur,162,86.9894652,23.2362408,928
109,Kaludihi,163,86.9861817,23.2270682,928
110,Chhatardihi,164,86.99618790000002,23.2302335,928
111,Nutangaon,165,86.99618790000002,23.2213094,928
112,Paharia,166,87.0086927,23.2274961,928
113,Bhikurdihi,167,87.0036911,23.2184771,928
119,Bhaturi,173,87.016194,23.1919402,928
121,Makarkendi,175,87.03619169999996,23.1863664,928
124,Uparshol,178,87.3996765,22.9814636,931
125,Dakshin Bankati,179,87.0186942,23.2068617,928
126,Patalkhuri,180,87.01119320000002,23.2156444,928
129,Rajagram,183,87.03869089999998,23.2161622,928
131,Kendkhune,185,87.0368165,23.196046600000006,928
132,Agaya,186,87.04368869999998,23.1954315,928
133,Manjura,187,87.0449381,23.2028922,928
134,Manusmura,188,87.0449381,23.2147917,928
135,Dadhimukha,189,87.0536829,23.198593,928
136,Aralbanshi,190,87.0536829,23.2194173,928
137,Banshi,191,87.06367499999998,23.2196033,928
139,Patakala,193,87.0686703,23.2137463,928
140,Dhaldanga,194,87.0599282,23.2031717,928
141,Chak Jagadalla,195,87.054932,23.185229,928
142,Jagadalla,196,87.0686703,23.1958966,928
144,Dabra,198,87.0811561,23.202077600000006,928
146,Rasunkur,200,87.0961348,23.2053284,928
149,Bankura,211,87.07860440000002,23.2324146,928
150,Patpur,212,87.06117720000002,23.2314562,928
151,Kenduyadihi,213,87.0349421,23.2324532,928
153,Kankata,215,87.05055999999998,23.2275398,928
154,Lokpur,216,87.54205789999996,23.0626011,932
155,Ailakundi,217,87.0299433,23.2383088,928
156,Kargahir,218,87.03181790000002,23.2286761,928
158,Jagatraydihi,220,87.01119320000002,23.2334929,928
159,Bolara,221,87.0199442,23.2381204,928
162,Karanjora,1,87.03181790000002,23.3669888,928
164,Kendboni,3,87.03556689999998,23.3566499,928
165,Dulalkundi,4,87.0199442,23.3452014,928
166,Kantaboni,5,87.0140062,23.3387685,928
167,Mamurjuri,6,87.0261939,23.3408582,928
168,Dhanshimul,7,87.03884709999998,23.3531798,928
169,Chharekha,8,87.04993530000002,23.3398179,929
170,Hatishalpindri,9,87.04118989999998,23.3351923,929
172,Ladna,11,87.0268188,23.3341779,928
173,Bhangahira,12,87.02166290000002,23.3309202,928
174,Bagatapol,13,87.0049416,23.333019600000004,928
175,Parashibad,14,87.0086927,23.3256552,928
177,Barachaka,16,87.0055668,23.3203907,928
178,Shitladihi,17,87.06367499999998,23.2731489,928
180,Chhotachaka,19,87.0186942,23.3139475,928
181,Sonarekh,20,87.0230691,23.3251841,928
184,Garakusum,23,87.0461875,23.332311800000006,929
185,Mankanali,24,87.03619169999996,23.3261753,928
187,Malindasi,26,87.0536829,23.3116315,928
188,Raibandh,27,86.89101889999998,23.4690888,924
190,Chhotakalajharia,29,87.0311931,23.3022859,928
191,Radharamanpur,30,87.3637025,23.3691856,934
192,Bara kalajharia,31,87.0199442,23.291663,928
193,Sonadaha,32,87.01119320000002,23.295959,928
194,Kulpat Bankati,33,87.00994299999998,23.2855246,928
197,Chaitali,36,87.0311931,23.2874135,928
198,Bankata,37,86.99868909999998,22.9148971,927
204,Upardihi,43,86.83458409999999,23.2999457,924
205,Beldangra,44,87.0536829,23.2878355,928
206,Kelebala,45,87.05180920000002,23.2811076,928
207,Pirarishol,46,87.06679709999997,23.284361800000006,928
208,Jugsahar,47,87.06117720000002,23.2790516,928
209,Sheetaladihi,48,87.06942850000001,23.267121,928
210,Tantkanali,49,87.06367499999998,23.2671996,928
212,Keshra,51,86.85277579999996,23.265363600000004,924
214,Ladadihi,53,87.02119420000002,23.2634285,928
215,Ramdihi,54,87.016194,23.2722577,928
216,Garerban,201,87.10611800000002,23.2144365,930
217,Ekteswar,202,87.09114240000002,23.2141615,930
220,Bhadul,207,87.09114240000002,23.2141615,930
221,Bhutsahar,208,87.1111088,23.2294025,930
225,Bhedua,223,87.1167229,23.2718965,930
226,Asna,224,87.0336925,23.2487907,928
227,Panchbaga,225,87.04118989999998,23.251906100000006,928
228,Badra,226,87.054932,23.2566252,928
229,Junbedia,229,87.0656767,23.2533537,928
231,Mauladanga,231,87.07928340000002,23.2578215,928
232,Keshiakol,232,87.4678266,23.0197671,932
233,Mithila,233,87.08365289999998,23.2437721,928
235,Bikna,235,87.09205390000002,23.2546368,928
239,Tilabedya,239,87.0767864,23.2815727,928
245,Kanchanpur,245,87.0942627,23.3116417,928
248,Moukura,248,87.1045583,23.2891499,928
249,Kulmura,249,87.0992548,23.2805003,928
251,Pashchim Ratanpur,251,87.11609909999999,23.2622171,930
252,Kadmaghati,252,87.10611800000002,23.2650091,928
253,Kamladanga,253,87.0955108,23.2729947,928
255,Katnar,255,87.10861349999998,23.2501809,930
256,Chapatara,256,87.10861349999998,23.2412564,930
257,Sendra,257,87.11609909999999,23.2384184,930
267,Kherosole,267,87.1267017,23.294389,928
268,Chhatar kanali,268,87.1304433,23.3004064,928
270,Emokundi,270,87.1410427,23.2834946,930
272,Banhambirpur,272,87.14478309999998,23.2761254,930
273,Nabanda,273,87.1310668,23.2684396,930
275,Narrah,275,87.1366785,23.2544111,930
280,Matranga,280,87.136055,23.2328318,930
281,Ailta,281,87.14353630000002,23.2329673,930
287,Bagneja,287,87.1560025,23.2450921,930
290,Churamanipur,290,87.2444182,23.146987600000006,930
291,Uparbanda,291,86.95615059999999,22.7920748,926
293,Belboni,293,87.0480615,23.428262600000004,923
294,Agayanandanpur,294,87.2095698,23.0154469,930
295,Khayerkanali,295,87.14852320000001,23.2925542,930
297,Kaljuri,297,87.1560025,23.3045882,930
299,Rasiknagarpur,299,87.16472689999998,23.2943339,930
300,Madla Kamdebpur,300,87.17967929999998,23.282703,930
302,Kharigara,302,87.1746957,23.2707145,930
303,Dhunara,303,86.9849308,22.7375562,926
305,Chhirabasta,304,87.1690885,23.2520209,930
311,Goalhati,310,87.1958724,23.2190297,930
312,Katapesia,311,87.2008537,23.2369686,930
315,Banmadhabpur,314,87.22450800000001,23.223998100000006,930
316,Maitha Gopinathpur,315,87.2145498,23.2119222,930
320,Jorthol,4,86.8396032,23.4427866,924
321,Kendbede,5,86.84587629999999,23.4443996,924
322,Fulberya,6,87.2307309,23.3386414,929
323,Jalhari,7,86.9886834,23.250913,928
326,Sanpura,10,87.6050605,23.0769572,933
328,Kumirdoha,12,86.8847516,23.449637,924
330,Bhelani,14,86.8797372,23.4673778,924
332,Raibandh,16,86.89101889999998,23.4690888,924
336,Taljharia,20,86.92484830000002,23.4801634,923
337,Gopinathdihi,21,86.9110688,23.4754322,924
338,Dhaban,22,86.90167149999998,23.4670697,924
341,Sidhaberia,25,86.9110688,23.4635384,924
344,Ampahari,28,86.91482719999998,23.444284600000003,924
345,Murgathol,29,86.92484830000002,23.4385342,923
347,Jirra,31,86.929858,23.4148429,924
349,Chakchaki,33,86.91608000000002,23.430928,924
350,Burat,34,86.90605710000001,23.4337043,924
351,Jorhira,35,86.88851209999999,23.427410100000003,924
353,Arajuri,37,86.91482719999998,23.4204956,924
357,Kalipahari,41,86.8747223,23.4315964,924
360,Dhatla,44,86.85842020000003,23.408969,924
362,Kaminbedya,46,86.8659449,23.4001985,924
363,Sihika,47,86.87597609999997,23.3944509,924
365,Tulsa,49,86.8897655,23.4021589,924
366,Sihikapahari,50,86.88851209999999,23.391726,924
367,Hatjor,51,86.8985386,23.3859767,924
369,Simulberya,53,86.90355109999999,23.4009445,924
370,Ethani,54,86.90981590000001,23.384712,924
371,Saluni,55,86.90355109999999,23.3741802,924
372,Besara,56,86.9348672,23.3673591,924
373,Enari,57,86.91835189999998,23.3539265,924
374,Karrashol,58,86.93111040000002,23.3509289,924
376,Haridihi,60,86.9448841,23.3497099,924
378,Jhunjka,62,86.9799267,23.3563349,924
380,Hausibad,64,86.96366009999998,23.3575087,924
381,Majhidi,65,86.94863989999998,23.360192,924
385,Jiadoba,69,86.94863989999998,23.3869577,924
388,Shirpura,72,86.92610079999999,23.3835445,924
389,Jirrakelai,73,86.9210906,23.4012893,924
390,Hetyashol,74,86.90605710000001,23.1927984,928
393,Dumurkundi,77,86.95364719999998,23.3930027,924
396,Kulyara,80,86.9448841,23.4210836,924
397,Bagdiha,81,86.95302129999996,23.166193300000003,924
401,Shushuniapahar,85,86.9849308,23.3921193,924
404,Namo Shushunia,88,86.96359790000002,23.3858914,924
405,Shushunia,89,87.006192,23.1798516,930
407,Bishkodar,91,86.9686658,23.3813974,924
414,Agaya,98,87.04368869999998,23.1954315,928
415,Chamkara,99,87.0105681,23.3413057,924
416,Basulibandh,100,86.99618790000002,23.3402883,924
417,Karra,101,87.6734872,23.1425245,933
418,Beliara,102,86.9886834,23.352041600000003,924
419,Haribandi,103,86.9786757,23.3399531,924
420,Mirga,104,86.9811778,23.3310785,924
421,Shiuligarya,105,86.9949372,23.3268804,928
424,Mujrakundi,108,87.0036911,23.301765300000003,928
425,Jamdahari,109,86.9949372,23.297137,924
426,Barbakra,110,86.9799267,23.2968501,924
427,Khayerkanali,111,87.14852320000001,23.2925542,930
430,Kamarkuli,114,86.9649116,23.3144074,924
431,Kuludihi,115,86.9699172,23.3264008,924
432,Gurputa,116,86.9649116,23.338201100000006,924
436,Ghoramuli,120,86.940502,23.3161658,924
439,Mandashpara,123,86.95615059999999,23.3038284,924
443,Jhagrapur,127,86.93611949999998,23.291543,924
444,Bhalaidiha,128,86.9169189,23.2891832,924
445,Brajamohanpur,129,86.9167063,23.2770364,928
447,Gharmora,131,86.9135745,23.2940773,924
448,Musibdihi,132,86.908563,23.3029018,924
451,Kalpathar,135,86.9386238,23.226153600000004,928
452,Ghosergram,136,86.93705859999999,23.3313415,924
453,Kharbona(137),137,86.8634368,23.2484736,924
454,Hansapahari,138,86.90480409999998,23.3608223,924
459,Shiulipahari,143,86.8747223,23.4315964,924
461,Bindna,145,86.89603220000002,23.3413186,924
462,Jhantipahari,146,86.90480409999998,23.3608223,924
463,Ranagora,147,86.90355109999999,23.3682324,924
465,Bikpur,149,86.8834981,23.3440448,924
468,Rajadal,152,86.8734685,23.3468198,924
470,Murgaboni,154,86.8920601,23.3557359,924
473,Bindajam,157,86.8847516,23.384217,924
474,Bara Banagram,158,86.87096070000003,23.3824561,924
478,Gursagra,162,86.853403,23.3791318,924
480,Guniada,164,86.8640638,23.368193100000006,924
481,Malbedya,165,86.8659449,23.3555918,924
482,Harakbedya,166,86.8596744,23.3539798,924
487,Barshi,171,86.8383485,23.3580132,924
489,Tilajuri,173,86.81387480000002,23.3419068,924
490,Kathariya,174,86.8245443,23.3473268,924
491,Singergara,175,86.8408579,23.3491422,924
492,Karkari,176,86.81952369999998,23.2223131,924
494,Satkhulia,178,86.84838529999998,23.3403715,924
495,Anturibona,179,86.83430140000002,23.335181,924
498,Aljhara,182,86.79943589999998,23.328975,924
499,Dhengagora,183,86.79064489999998,23.3094657,924
502,Dhagara,186,86.7893889,22.9777702,925
503,Meghakata,187,86.81764079999998,23.3152179,924
506,Amakunda,190,87.04993530000002,22.941148100000003,927
508,Chholagara,192,86.8596744,23.324240300000003,924
513,Patjuri Agaya,197,86.89101889999998,23.3085049,924
516,Rangametia,200,86.85716590000001,23.3093201,924
517,Kamalpur,201,86.84650359999998,23.3009283,924
518,Chinabari,202,86.8314469,23.3065743,924
520,Maheshkhapuri,204,86.81575790000002,23.3040274,924
521,Chaintor,205,86.8107363,23.2950038,924
522,Maheshana,206,86.79818019999998,23.2917751,924
524,Budhanpur,208,86.7944127,23.2812894,924
526,Panjangara,210,86.8057142,23.2740835,924
527,Chaka,211,86.92484830000002,22.9685413,925
530,Upardihi,214,86.83458409999999,23.2999457,924
532,Khobradihi,216,86.83458409999999,23.2761528,924
537,Chhatapathar,221,87.0149438,23.4819063,923
538,Baliguma,222,87.0543075,23.1294341,930
540,Pithabaid,224,86.853403,22.9418548,925
541,Shaldiha,225,86.8088531,23.1707886,924
544,Lakshmishol,228,86.90355109999999,23.2462913,928
548,Jatyardihi,232,86.8847516,23.2474086,924
552,Bandardihi,236,86.8784835,23.2695923,924
553,Hetyatora,237,86.8734685,23.2784157,924
554,Masthol,238,86.86469090000001,23.2767543,924
555,Keshra,239,86.85277579999996,23.265363600000004,924
557,Subarda,241,86.8474445,23.2782693,924
558,Rahir,242,86.8245443,23.2700026,924
559,Kapasbediya,243,86.8214065,23.2587862,924
560,Haridi,244,86.82956449999998,23.2582068,924
561,Metyala,245,87.14478309999998,23.0976162,930
562,Fulkusum,246,86.8659449,22.70998,926
563,Bahidya,247,86.83976,23.2481872,924
567,Karkari,251,86.81952369999998,23.2223131,924
568,Jambede,252,86.82956449999998,23.2284637,924
573,Kharbona(257),257,86.9248489,23.3355038,924
574,Buripara,258,86.87597609999997,23.2397992,924
575,Jibanpur Bankati,259,86.89101889999998,23.2400961,924
578,Bagjuri,262,86.88099090000001,23.2339495,924
580,Pathanberya,264,86.8734685,23.2278518,924
581,Saparda,265,86.8634368,23.2276529,924
582,Tisara,266,86.85842020000003,23.2275532,924
583,Kelaibad,267,86.8508942,23.2244289,924
587,Danmari,271,86.8734685,23.2159539,924
592,Banpusra,276,86.84963979999998,23.2050699,924
598,Nuniadihi,282,86.8659449,23.1860593,924
600,Panjan Pahari,284,86.88099090000001,23.183382100000006,924
602,Panpukuria,286,86.89603220000002,23.2045005,928
603,Noadihi,287,86.89477889999998,23.1940647,928
604,Kanudihi,288,86.90167149999998,23.1845322,924
610,Tiluri,6,86.90480409999998,23.5689632,923
613,Bhadaspur,9,86.88851209999999,23.561207100000004,923
614,Bhadaspur Khas,10,86.89477889999998,23.5509264,923
615,Udaypur,11,86.90981590000001,23.5452784,923
616,Kashihir,12,86.91858540000001,23.5558572,923
618,Bardubi,14,86.93987589999998,23.5577622,923
619,Lakshankata,15,86.9436321,23.565268300000003,923
620,Maldihi,16,86.93361499999996,23.565072,923
621,Chhatinbaid,17,86.92484830000002,23.5634131,923
626,Chak Baga,22,86.92610079999999,23.579789,923
627,Paharbera,23,86.93987589999998,23.587492,923
628,Dighit,24,86.94112799999998,23.5949487,923
629,Shalbeda,25,86.9386238,23.6038181,923
630,Tentularakh,26,86.92484830000002,23.5931423,923
631,Saburbandh,27,86.92484830000002,23.6109791,923
632,Kesharkundi,28,86.9348672,23.6230673,923
635,Iswarda,31,86.94989179999996,23.6233619,923
637,Bamantora,33,86.94989179999996,23.5995795,923
638,Kujkuria,34,86.95615059999999,23.6071339,923
640,Bagjata,36,86.9686658,23.6162961,923
641,Kukhrakuri,37,86.97457,23.616719,923
643,Chandbad,39,86.9886834,23.6107382,923
644,Chaukhuri,40,86.9936865,23.598943,923
649,Sahebdangga,45,87.03294620000001,23.6056814,923
651,Shalchur,47,87.0311931,23.5937151,923
652,Salma,48,87.0114327,23.6024515,923
654,Kamalhir,50,87.0199442,23.583095,923
658,Kendana,54,87.0049416,23.570915600000006,923
661,Bhanggucha,57,86.991185,23.5840299,923
664,Rautara,60,86.66362690000003,22.8264226,925
665,Kechka,61,86.973671,23.589637300000003,923
667,Pagarbari,63,86.94989179999996,23.587688,923
669,Biharinath Parbbat,65,86.93987589999998,23.5756002,923
678,Sarpahari,74,86.94863989999998,23.5594201,923
679,Siakuldoba,75,86.94989179999996,23.5520118,923
682,Lalitakuri,78,86.98367979999998,23.5511811,923
690,Pabra,86,87.0299433,23.535714,923
692,Chak Paruri,88,87.0149438,23.523535,923
694,Beriathol,90,87.01369369999998,23.5131042,923
695,Patdoha,91,86.99993959999998,23.5054076,923
698,Goradihi,94,86.9886834,23.521545,923
699,Pathardihi,95,86.8734685,23.0612632,925
701,Digtore,97,86.9647574,23.5109582,923
702,Bamnishala,98,86.94863989999998,23.520769,923
704,Simladihi,100,86.9386238,23.5443588,923
709,Murlu,105,86.90731009999998,23.5244171,923
710,Shiarbediya,106,86.9273532,23.501026100000004,923
711,Jhanka,107,86.92484830000002,23.5217897,923
713,Ledapalash,109,86.9448841,23.5043426,923
714,Sebapur,110,86.94112799999998,23.4908891,923
717,Telidihi,113,86.9849308,23.5051192,923
718,Binoddihi,114,86.99181039999998,23.4985613,923
719,Dhatla,115,86.85842020000003,23.408969,924
723,Chhatapathar,119,87.0149438,23.4819063,923
725,Pirrabaid,121,87.0299433,23.5119268,923
727,Shalroha,123,87.0449381,23.5062637,923
728,Belekuri,124,87.07491359999999,23.5068267,923
730,Demramol,126,87.06617270000002,23.502202800000006,923
731,Kantabaid,127,87.05573129999998,23.4955799,923
732,Shukabaid,128,87.19460409999998,23.528482800000006,923
736,Tilabaid,132,87.0149438,23.4700119,923
737,Majurakundi,133,87.0036911,23.301765300000003,928
738,Rajabandh,134,86.94989179999996,22.9392661,927
740,Belebaid,136,86.78283940000001,22.9970688,925
741,Kanuri,137,86.9649116,23.4809448,923
744,Gogra,140,87.58036390000002,23.0170536,932
745,Latulia,141,86.95865390000002,23.4644691,923
747,Adhuri,143,86.9448841,23.444873,923
749,Haroka,145,86.9605313,23.4459205,923
751,Kultuka,147,86.9839925,23.453436,923
752,Murgadoba,148,86.9786757,23.4559355,923
754,Bhodadi,150,86.99306120000001,23.4510082,923
755,Barkona,151,87.00587940000001,23.4568292,923
756,Laxmanpur,152,87.00931779999998,23.440911,923
757,Dhapali,153,87.0052542,23.4367446,923
758,Khadhamara,154,87.0199442,23.0358124,927
760,Netkamla,156,86.9799267,23.4217619,923
762,Bhara,1,87.0461875,23.6029187,923
763,Kalidaspur,4,87.0449381,23.5835701,923
766,Benakanali,5,87.0543075,23.5844904,923
767,Bhului,6,87.06554829999996,23.581729,923
768,Arddhagram,7,87.08614949999998,23.5828581,923
773,Kshiraitore,12,87.0824052,23.5838783,923
774,Ghusra,13,87.05618109999998,23.5644567,923
775,Jot Shriram,14,87.0599282,23.5779068,923
776,Jugibag,15,87.04368869999998,23.576113600000006,923
777,Mohana,16,87.0311931,23.566957,923
779,Jorsa,18,87.0461875,23.5642681,923
780,Lakshmanbandi,19,87.0586792,23.5585572,923
782,Dhandora,21,87.0449381,23.5478915,923
783,Kanshara,22,87.0599282,23.5362807,923
784,Duburia,23,87.04993530000002,23.5182519,923
786,Benabad,25,87.08365289999998,23.5114502,923
788,Ramlalpur,27,87.07366499999998,23.5291048,923
790,Kanshai,29,87.06367499999998,23.5437845,923
794,Matabel,33,87.0936387,23.5443445,923
795,Chuaberia,34,87.09488680000004,23.5547746,923
796,Tarapur,35,87.10986120000003,23.5550522,923
798,Mejia,37,87.1073658,23.5639262,923
799,Indara,38,87.1111088,23.5357479,923
800,Benathol,39,87.1011267,23.541510100000004,923
801,Maduarchak,40,87.10362239999998,23.5326359,923
802,Jujghati,41,87.1111088,23.5268273,923
803,Nabashan,42,87.1011267,23.523669100000006,923
804,Moshnekonda,43,87.0986308,23.5176758,923
806,Shaltora,45,86.9342411,23.524204,923
807,Natshala,46,87.1011267,23.4998803,923
814,Kendut,53,87.1111088,23.5179067,923
816,Ikra,55,87.12773469999998,23.5290949,923
817,Jamkuri,56,87.4950586,23.166029100000006,933
819,Mochrakend,58,87.14478309999998,23.5200116,923
820,Bharra,59,87.1397958,23.537762,923
821,Telenda,60,87.14478309999998,23.5556942,923
822,Murra,61,87.1547561,23.555876100000006,923
831,Japmali,70,87.2021788,23.5284253,923
832,Sarama,71,87.21579469999998,23.5287258,923
833,Jangpur,72,87.2145498,23.5153217,923
834,Banjora,73,87.2294864,23.5096392,923
835,Jalanpur,74,87.2444182,23.509902800000006,929
839,Kamalpur,3,86.84650359999998,23.3009283,924
841,Duberdanga,5,87.19338150000002,23.4807444,923
842,Barashal Shrirampur,6,87.1809251,23.4983638,923
843,BaraLachhipur,7,87.1759416,23.4893526,923
845,Lalpur Bara,9,87.1597417,23.496494100000003,923
848,Panktor,12,87.14478309999998,23.4843269,923
850,Chaushal,14,87.16472689999998,23.4787414,923
851,Adwitpur,15,87.17344969999998,23.4714643,923
854,Phuljam,18,87.2095698,23.4557545,923
856,Brajarajpur,20,86.93361499999996,23.0951628,924
858,Dethol,22,87.1983631,23.4421712,923
860,Nityanandapur,24,87.1927587,23.4561979,923
861,Subirara,25,87.1732273,23.4669132,923
863,Bankdaha,27,87.157249,23.4220999,923
864,Pheguashol,28,87.1609881,23.4355511,923
865,Hadalbani,29,87.1684655,23.4416343,923
866,Latiabani,30,87.13730199999998,23.4455297,923
867,Machhbanda,31,87.1547561,23.4607172,923
868,Benagari,32,87.1397958,23.472340600000006,923
869,Nidhirampur,34,87.1148516,23.4778309,923
871,Pachamba,37,87.08490119999998,23.4891713,923
874,Dumuria,40,87.1054941,23.4620457,923
877,Bhalukathol,43,87.09488680000004,23.4655668,923
878,Gobindapurbaid,44,87.08614949999998,23.472839,923
880,Ban Ashuria,46,87.07990769999998,23.471236,923
884,Sudarshanpur,51,87.04118989999998,23.4630754,923
886,Chhotalalpur,53,87.0299433,23.4584021,923
887,Chhota Nabagram,54,87.0236941,23.4597704,923
888,Chururi,55,87.0236941,23.4478755,923
890,Jenadihi,57,87.0449381,23.4467904,923
891,Bishinda,58,87.05618109999998,23.457410100000004,923
892,Pramanik Kunri,59,87.0686703,23.460618,923
893,Chak Rangametya,60,87.08365289999998,23.4549498,923
894,Rangametya,61,86.8609285,23.4209136,924
896,Kenthalya,63,87.07990769999998,23.4414977,923
897,Rajamela,64,87.0618016,23.440416100000004,923
898,Balikhun,65,87.0580547,23.4254763,923
899,Sidara,66,87.05305829999998,23.441739,923
900,Lachhmanpur,67,87.0374413,23.4317798,923
901,Bharadihi,68,87.016194,23.432864,923
902,Bara Rampur,69,87.0186942,23.4210162,923
903,Sagarya,70,87.01369369999998,23.4209211,923
906,Jamshala,74,87.0086927,23.4000085,923
908,Nadihi,76,87.016819,23.3994195,923
913,Keshiara,81,87.08552540000002,23.3873259,929
914,Itadangra,82,87.10487020000002,23.0195276,927
917,Ukhradihi,85,87.03806610000002,23.3834644,923
919,Jambedya,87,87.1560025,23.0814522,930
921,Taljhitka,89,87.0805319,23.3812849,929
922,Lakhyara,90,87.0746015,23.3681625,929
923,Ekchala,91,87.0830287,23.3724086,929
924,Ranganathpur,92,87.0674215,23.3490678,929
926,Gurachhanda,94,87.07428929999998,23.3365546,929
927,Amladahi,95,87.07147990000001,23.3294382,929
929,Pankua,97,87.0811561,23.3210664,929
930,Amjor,98,87.10487020000002,23.3229914,929
931,Machaparulia,99,87.09738279999998,23.3377258,929
932,Gobindadham,100,87.10674190000002,23.3535138,929
935,Ranbahal,103,87.1001908,23.3872255,929
936,Selera,104,87.10923729999998,23.3833026,929
937,Konra,105,87.1129802,23.3863457,929
938,Maraya,106,87.0955108,23.4023816,929
940,Mandi,108,87.32397490000002,22.9519347,931
941,Gangajalghati,109,87.1148516,23.4243003,923
942,Belarmari,110,87.1310668,23.426084600000006,923
943,Chhota Kumira,111,87.12857249999998,23.4171167,929
944,Kenduadihi,112,87.0349421,23.2324532,928
946,Kot  Madanmohanpur,114,87.13854889999998,23.4024281,929
947,Kapistha,115,87.1379254,23.386802,929
948,Subarnator,116,87.15288629999998,23.3826123,929
950,Shaltora,118,86.9342411,23.524204,923
953,Kallapur,121,87.17967929999998,23.4076335,929
955,Suarara,123,87.17656459999998,23.3830395,929
956,Radhashyampur,124,87.19089050000002,23.3885014,929
957,Sankarara,125,87.185908,23.3794891,929
959,Charadihi,127,87.19338150000002,23.3706995,929
966,Jambedya,134,87.1560025,23.0814522,930
968,Barajuri,137,87.1267017,23.3598284,929
970,Dandulya,138,87.1242072,23.3359874,929
974,Kenduabari,140,87.14478309999998,23.3237202,929
975,Arbat,141,87.1242072,23.3300384,929
976,Asanchua,142,87.1217126,23.325531100000006,929
979,Biharjurya,144,87.1262606,23.3150491,929
982,Atarya,147,87.1460298,23.3014332,930
985,Pirraboni,149,87.1609881,23.3255005,930
986,Dhabani Gobindapur,150,87.1547561,23.335799,929
992,Tentuliadanga,155,87.17158069999998,23.3457695,929
995,Bhattapara,157,87.19649509999998,23.3477026,929
1003,Arbetal,165,87.20334419999998,23.338157100000004,929
1004,Khopaganj,129,87.1940042,23.3595563,929
1005,Birra,130,87.29042840000002,23.1462936,931
1007,Balijora,132,87.16348070000002,23.3671885,929
1017,Kantabani,152,87.16036489999998,23.3589526,929
1021,Shimlagar,156,87.1865309,23.350499300000006,929
1023,Menjua,158,87.17999069999998,23.3403432,929
1027,Bhalukapahari,162,87.1834166,23.3259033,929
1028,Bayermara,163,87.18839930000001,23.331941600000004,929
1032,Pingrui,2,87.19338150000002,23.1951842,930
1035,Maliara,5,87.2269973,23.48283,929
1039,Barapukhuriya,9,87.2456624,23.4489573,929
1041,Tikargram,11,87.25561400000002,23.4550801,929
1043,Metyali,13,87.2728398,23.4810913,929
1047,Shalgara,17,87.29291409999998,23.4587027,929
1048,Gokulmothura,18,87.28732099999998,23.4623238,929
1051,Pathrajuri,21,87.2829703,23.4406853,929
1052,Kadashol,22,87.2705376,23.4374952,929
1054,Ghutgarya,24,87.25437020000003,23.4387002,929
1056,Saharjora,26,87.23695289999998,23.411626,929
1057,Chak Arabad,27,87.2008537,23.4303191,929
1058,Muktatore,28,87.2182844,23.4127835,929
1059,Beleshola,29,87.2008537,23.4124737,929
1060,Chak Keshya,30,87.21330479999997,23.4037723,929
1062,Kochkunda,32,87.20458939999996,23.3902329,929
1063,Baliguma,33,87.0543075,23.1294341,930
1064,Sankarara,34,87.185908,23.3794891,929
1065,Manjmura,35,87.20583460000002,23.3738957,929
1067,Kanchanpur,37,87.0942627,23.3116417,928
1068,Pabayan,38,86.98993420000002,23.5408954,923
1069,Dakaisini,39,87.2357086,23.3684749,929
1070,Khanrari,40,87.2394415,23.3789512,929
1071,Uara,41,87.25312629999998,23.3866272,929
1075,Sonergram,45,87.28607799999996,23.4147136,929
1076,Barjora,46,87.2854565,23.4258568,929
1083,Bilmalpur,53,87.3208697,23.4435679,929
1084,Bamandihi,54,87.33390990000002,23.4460209,929
1085,Purakonda,55,87.34880860000001,23.4403246,929
1087,Pakhanna Bhairabpur,57,87.3736292,23.4288443,929
1088,Pakhanna,58,87.37859170000002,23.4051308,934
1091,Kamalpur,61,86.84650359999998,23.3009283,924
1092,Pakhannapratappur,62,87.3668048,23.4086519,929
1093,Palashboni,63,87.10674190000002,23.0932077,930
1095,Suratpur,65,87.36494350000002,23.3974659,934
1097,Kusumgarya,67,87.3394975,23.3962934,929
1098,Tajpur Rampur,68,87.3475672,23.4120463,929
1100,Rajmadhabpur,70,87.33390990000002,23.4162767,929
1102,Rajprasadpur,72,87.32521690000002,23.4116672,929
1105,Basudebpur Uttar,75,87.29788520000002,23.408224800000006,929
1107,Shaldanga,77,87.31217420000002,23.4107008,929
1111,Dewangarya,81,87.32521690000002,23.396794600000003,929
1112,Sarali,82,87.3134165,23.3943623,929
1113,Madanhati,83,87.3127954,23.3876589,929
1115,Behargarya,85,87.3301845,23.3909299,929
1117,Kotalpukur,87,87.33763509999999,23.3761831,929
1120,Mahidhara,91,87.31776440000002,23.3758453,929
1122,Gaurmohanpur,93,87.3100001,23.3827774,929
1123,Naykona,94,87.3047196,23.3867769,929
1125,Payermohan,96,87.29539969999998,23.3933095,929
1126,Shushuniya,97,87.006192,23.1798516,930
1127,Sahebdihi,98,87.2879425,23.39913,929
1131,Talanjuri,102,87.27302440000003,23.3869738,929
1132,Kantabaid,103,87.05573129999998,23.4955799,923
1133,Kalpaini,113,87.23819720000002,23.3595949,929
1134,Banshol,114,87.23321980000001,23.3505837,929
1137,Nirisha,117,87.21330479999997,23.3561813,929
1142,Kururiya,134,87.2400636,23.3365743,929
1143,Kururiya Balarampur,135,87.2350864,23.3364869,929
1144,Malkuriya,136,87.2363307,23.3439454,929
1145,Ekarya,137,87.24317409999998,23.3418345,929
1146,Majuddagara,138,87.24068570000001,23.3477402,929
1147,Saragara,139,87.2493945,23.3553292,929
1152,Chhandar,151,87.25561400000002,23.3063547,929
1154,Murakata,153,87.16348070000002,23.1678738,930
1156,Bhabarkhola,155,87.24068570000001,23.2971694,929
1158,Pashchim-Brindabanpur,157,87.22326340000002,23.3028131,929
1163,Ramharipur,162,87.19089050000002,23.370655,929
1164,Barabendya,163,87.2294864,23.2716863,929
1165,Jorshal,164,87.22450800000001,23.2596989,930
1166,Dhengakend,165,87.2493945,23.2601347,929
1167,Ladna,166,87.0268188,23.3341779,928
1168,Methena,167,87.2444182,23.2838477,929
1170,Joytunga,169,87.2630764,23.264835100000006,929
1172,Swargabati,171,87.2866995,23.2816059,929
1177,Amthia,176,87.2847463,23.3242344,929
1178,Gosainpur,177,87.2705376,23.3274377,929
1179,Bankurardanga,178,87.27799759999998,23.3275668,929
1180,Belut,179,86.76426239999998,23.191447600000004,924
1181,Shaldanga,180,87.31217420000002,23.4107008,929
1185,Muktapur,184,87.2077022,23.072699,930
1186,Kodma,185,87.3301845,23.3314353,929
1190,Mathuraberia,189,87.31776440000002,23.3193247,929
1191,Bhairabdanga,190,87.3127954,23.3281646,929
1193,Rautara,192,86.66362690000003,22.8264226,925
1194,Bajikura,193,87.07860440000002,23.2324146,928
1195,Mathuradanga,194,87.29042840000002,23.321831600000003,929
1196,Rajmadhabpur,195,87.33390990000002,23.4162767,929
1199,Kantabeshe,198,87.29912790000002,23.3145439,929
1200,Nityanandapur,199,87.1927587,23.4561979,923
1201,Gangabandh,200,87.31776440000002,23.3103999,929
1202,Saulia,201,87.31652220000002,23.2821162,929
1203,Dunda,1,87.03869089999998,23.1804633,930
1213,Kharigara,11,87.1746957,23.2707145,930
1214,Kokilpur,12,87.0236941,23.1682819,930
1216,Digshuli,14,87.0449381,23.1433917,930
1224,Siarbada,22,86.9755478,23.212735100000003,928
1225,Beryakhamar,23,87.0336925,23.1387188,930
1226,Haryaki,24,87.0461875,23.1270515,930
1227,Balguma,25,86.9436321,22.9019491,927
1229,Rasiknagarpur,27,87.16472689999998,23.2943339,930
1230,Kadagot,28,87.04587939999998,23.1050067,930
1231,Layadadumarya,29,87.04368869999998,23.094277,930
1232,Gholkunda,30,87.05055999999998,23.0906857,930
1234,Chakuparshol,32,87.054932,23.1019244,930
1236,Barkurpa,34,87.07860440000002,23.2324146,928
1237,Barkala,35,86.8784835,22.665578600000003,926
1238,Machhrakhi,36,87.08646159999998,23.1036225,930
1243,Rautara,41,86.66362690000003,22.8264226,925
1244,Kawabasa,42,87.10861349999998,23.1163013,930
1245,Panbaraj,43,87.12108889999998,23.1165284,930
1246,Kiabati,44,87.1310668,23.1137338,930
1247,Bhulanpur,45,87.12483089999998,23.1032068,930
1248,Palashbani,46,87.36308199999998,23.4041275,929
1249,Gengari,47,87.10362239999998,23.080505,930
1253,Metyala,51,87.14478309999998,23.0976162,930
1254,Jamjuri,52,87.14353630000002,23.1169344,930
1255,Churamanipur,53,87.2444182,23.146987600000006,930
1256,Patadubi,54,87.14041920000003,23.1265483,930
1257,Aguriband Punishol,55,87.1073658,23.1356182,930
1258,Dhanda Keshabpur,56,87.08365289999998,23.1545224,930
1259,Dubrakon,57,87.0705433,23.1460987,930
1262,Benajira,60,87.0671093,23.176902,930
1264,Majura,62,87.0149438,22.6547718,926
1266,Hatbari,64,87.07491359999999,22.75708,926
1269,Dhengakend,67,86.9135745,23.2851545,924
1270,Jaba Balarampur,68,87.10986120000003,23.1683914,930
1271,Bagakhulya Monoharpur,69,87.0998788,23.174159,930
1273,Basuara,71,87.0961348,23.1874783,930
1274,Ekaria,72,87.10611800000002,23.1876612,930
1276,Surpanagar,74,87.10986120000003,23.2040925,930
1278,Beliara,76,86.9886834,23.352041600000003,924
1280,Bagjata,78,86.9686658,23.6162961,923
1283,Mankhamar,81,87.11360400000002,23.1788727,930
1284,Bhatgram,82,87.12358359999998,23.173104100000003,930
1286,Mukundabati,84,87.12857249999998,23.1612939,930
1289,Karra,87,87.6734872,23.1425245,933
1290,Hemchabad,88,87.1410427,23.1585443,930
1291,Lodna,89,87.13480799999998,23.1747953,930
1294,Bheduashol,92,86.9066836,23.1147214,924
1295,Kamalpur,93,86.84650359999998,23.3009283,924
1302,Kotalpur,100,87.59394870000001,23.0127947,932
1305,Bikrampur,103,87.1497698,23.169115100000006,930
1308,Guinandi,106,87.1684655,23.19474,930
1309,Itapanchira,107,87.16348070000002,23.2065512,930
1311,Ola,109,87.1578722,23.226532100000004,930
1314,Diga,112,87.1809251,23.2157887,930
1315,Bathan Tara,113,87.1709576,23.2126355,930
1316,Elyati,114,87.1759416,23.2067744,930
1317,Nikunjapur,115,87.18964489999998,23.205531,930
1318,Pingrui,116,87.19338150000002,23.1951842,930
1319,Belatukri,117,87.1809251,23.200913,930
1321,Shalihan,119,87.1709576,23.1888343,930
1322,Chandra Gopalpur,120,87.1746957,23.181463,930
1324,Murakata,122,87.16348070000002,23.1678738,930
1325,Lohari Brindabanpur,123,87.1483241,23.1604726,930
1326,Kochkhalui,124,87.1535095,23.1468677,930
1328,Shushina Gobindarampur,126,87.1497698,23.127460600000006,930
1329,Ramargram,127,87.16348070000002,23.1351451,930
1330,Hatiband,128,87.16348070000002,23.147046600000003,930
1331,Tol Chandrakona,129,87.1709576,23.1471803,930
1332,Madanmohanpur,130,87.4170333,23.323959,934
1336,Dhagarya,134,87.19338150000002,23.1743574,930
1337,Pantha,135,87.185908,23.1742247,930
1338,Rasiara,136,87.1946269,23.1818177,930
1339,Hiradangar,137,87.1989858,23.1871017,930
1341,Maitha,139,87.20894729999998,23.1947159,930
1347,Kumardanga,145,87.2023246,23.1508256,930
1348,Puthia,146,87.1983631,23.144692000000006,930
1349,Tella,147,87.19089050000002,23.1475351,930
1350,Sadishta,148,87.1809251,23.1533088,930
1353,Baharamuri,151,86.8897655,23.069021,925
1355,Chak Krishnanagar Thakurbari,153,87.1597417,23.1216887,930
1359,Kamarkata,157,87.16971159999999,23.0921118,930
1360,Rajduha,158,87.1809251,23.0908236,930
1361,Krishnasinghpur,159,87.1746957,23.0743469,930
1362,Jambedya,160,87.1560025,23.0814522,930
1363,Chingani,161,87.1410427,23.069281,930
1364,Geredaha,162,87.13854889999998,23.0513823,927
1365,Benagari,163,87.1397958,23.472340600000006,923
1366,Chhagulia,164,87.0536829,23.165868,930
1368,Chak Krishna Singhpur,166,87.1547561,23.0561368,930
1369,Kelyajuri,167,87.16348070000002,23.0607564,930
1370,Chaulabad,168,87.1709576,23.057914,930
1371,Ambari Hazarigram,169,87.1809251,23.0580912,930
1373,Niada,171,87.19089050000002,23.0790977,930
1374,Chak Muktapur,172,87.1996084,23.0747882,930
1375,Dhengashol,173,87.28421340000001,23.0107865,931
1376,Arabani,174,87.1834166,23.081941,930
1377,Mandiha,175,87.19089050000002,23.0939759,930
1383,Shimabaid,181,87.19338150000002,23.126751100000003,930
1385,Onda,183,87.20707970000002,23.1374073,930
1386,Gogra,184,87.58036390000002,23.0170536,932
1387,Prajabad,185,87.2145498,23.1226612,930
1388,Kushte,186,87.22077390000003,23.1361604,930
1390,Gopinathpur Etajhira,188,87.21330479999997,23.1598327,930
1391,Churamanipur,189,87.2444182,23.146987600000006,930
1393,Shuklai,191,87.22326340000002,23.1719092,930
1394,Gamidya,192,87.23446419999998,23.1825191,930
1395,Nayananadapur,193,87.1927587,23.4561979,923
1396,Majdiha,194,87.2182844,23.1896737,930
1398,Amlatara,196,86.95364719999998,23.2115708,928
1399,Angaria,197,87.2394415,23.23021,930
1400,Madanmohanpur,198,87.4170333,23.323959,934
1401,Kheruashol,199,87.25063850000002,23.2318929,930
1402,Betajora,200,87.26805069999996,23.2262446,930
1407,Kundalia,205,87.24317409999998,23.1990354,930
1408,Bhedua,206,87.1167229,23.2718965,930
1409,Kunchishol,207,87.2357086,23.192954500000006,930
1411,Chabra,209,87.2307309,23.1690647,930
1412,Makarkol,210,87.01119320000002,22.6859574,926
1413,Bahulara,211,87.23819720000002,23.1662197,930
1414,Bhetiara,212,87.2493945,23.176828600000004,930
1415,Nandabhanga,213,87.2593454,23.1770013,930
1417,Damasini,215,87.2357086,23.1542746,930
1418,Churamanipur,216,87.2444182,23.146987600000006,930
1420,Nabajibanpur,218,87.25312629999998,23.1486267,930
1423,Dalimahara,221,87.26058909999998,23.1338781,930
1427,Jamra Madhabpur,225,87.23819720000002,23.1394405,930
1429,Khamarbere,227,87.22450800000001,23.128787,930
1430,Damodarbati,228,87.22824179999998,23.1184379,930
1432,Datina Purushottampur,230,87.2108149,23.1151567,930
1434,Singargaria,232,87.20458939999996,23.0927301,930
1436,Maudi,234,87.21579469999998,23.0825122,930
1437,Tunka,235,87.2251304,23.0804439,930
1440,Teliberia,238,87.2288641,23.0953876,930
1442,Kalyari,240,87.25437020000003,23.1174047,930
1443,Patpur,241,87.06117720000002,23.2314562,928
1444,Mauchura,242,87.2444182,23.0934267,930
1445,Chhinpur,243,87.25312629999998,23.0920898,930
1446,Barpetya,244,87.25810159999996,23.0981273,930
1447,Malpur,245,87.2655636,23.1042076,930
1448,Lapur,246,87.27302440000003,23.104336,930
1449,Barmagura,247,87.27799759999998,23.107397100000004,930
1450,Ramsagar,248,87.27426779999998,23.0998938,930
1454,Radhamadhabpur,252,87.43438359999998,23.0117904,932
1455,Dhulyapur,253,87.27799759999998,23.0895426,930
1459,Agarda,257,87.23321980000001,23.0768654,930
1461,Bagakhulia,259,86.95615059999999,22.964679,925
1462,Hetemoa,260,87.25810159999996,23.077297,930
1465,Bhajibari,263,87.28234880000002,23.0665544,930
1466,Ramarchunpuan,264,87.26929419999998,23.0700503,930
1468,Bauridanga,266,87.27551109999997,23.041886,930
1469,Chak Bagmari,267,87.26805069999996,23.038782,930
1470,Bagmari Maheshpur,268,87.26058909999998,23.041629500000006,930
1471,Kharbaribadni,269,87.2593454,23.0520238,930
1473,Agarda Purushottampur,271,87.2294864,23.0574576,930
1474,Basuribera,272,87.2276196,23.0641206,930
1476,Chak Tunka,274,87.2195292,23.0691868,930
1477,Muktapur,275,87.32770079999997,23.3403176,929
1478,Lauria,276,87.2083248,23.0585751,930
1479,Kanaijuri,277,87.2008537,23.0554678,930
1480,Gorasole,278,87.20209899999998,23.095662,930
1481,Nakaijuri,279,87.1983631,23.0464966,930
1483,Chak Nakaijuri,281,87.1771876,23.017851500000006,930
1486,Patangapur,284,87.2108149,23.0288604,930
1488,Bhagabanbati,286,87.5531823,23.1297379,933
1489,Bakinala,287,87.2294864,23.0455543,930
1492,Benabandi,290,87.26058909999998,23.0297257,930
1493,Bhedua,291,87.1167229,23.2718965,930
1495,Manara,2,86.99993959999998,23.071141,927
1496,Surbhagaband,3,86.98993420000002,23.0590503,927
1499,Bibarda,6,87.0286936,23.0523414,927
1500,Dangjuri,7,87.016819,23.058813600000004,927
1501,Beldangra,8,87.0536829,23.2878355,928
1504,Khalgram,11,87.0349421,23.0658477,927
1509,Mahada,16,87.0349421,23.0360929,927
1510,Kadamara,17,87.0199442,23.0358124,927
1512,Chak Nutangram,19,86.99993959999998,23.0413871,927
1514,Paryardang,21,86.98367979999998,23.048517800000006,927
1516,Brahmandiha,23,86.9993144,22.6909453,926
1517,Sulgi,24,86.97116849999998,23.0304274,927
1518,Kiashol,25,86.98367979999998,23.0276898,927
1519,Ladda,26,86.7391229,22.9172437,925
1520,Marasol,27,86.9936865,23.0338303,927
1521,Harmasra,28,87.00056490000001,23.0242898,927
1522,Keshatara,29,86.8546573,22.9731219,925
1523,Bhimara,30,86.9786757,23.0186684,927
1524,Chunalu,31,86.973671,23.0215487,927
1525,Dolbagicha,32,86.966163,23.0065282,927
1526,Jarkapaksara,33,86.97492220000002,22.9992561,927
1528,Baghdoba,35,86.9786757,22.9770104,927
1529,Ghagar,36,86.9936865,22.9772944,927
1530,Patharkura,37,86.99618790000002,22.9832929,927
1533,Chak Kuldiha,40,86.991185,22.9980766,927
1534,Sushunia,41,86.96553730000002,23.3924893,924
1535,Mahishakanali,42,86.9886834,23.012907100000003,927
1538,Maibandhi,45,87.00931779999998,23.0066013,927
1539,Khichka,46,87.01369369999998,22.9985005,927
1540,Kadma,47,87.04368869999998,22.7252542,926
1543,Kolsuli,50,87.0199442,23.0060567,927
1546,Dhengashimul,53,87.0299433,23.0181462,927
1547,Jugda,54,87.04368869999998,23.0288168,927
1548,Nachna,55,86.8270545,22.8446248,925
1550,Kusmi,57,87.0686703,23.0233281,927
1553,Bhutama Maheshpur,60,87.05618109999998,23.0052434,927
1554,Harulia,61,87.0574302,22.9918758,927
1555,Khatbanda,62,87.06117720000002,22.9815298,927
1556,Harakona,63,87.0898943,22.9954483,927
1557,Bhedua,64,87.1167229,23.2718965,930
1558,Churamanipur,65,87.2444182,23.146987600000006,930
1559,Jafla,66,87.0811561,23.0086792,927
1562,Nityanandapur,69,87.1927587,23.4561979,923
1564,Bara Lakshanpur,71,87.08864609999998,23.0475001,927
1565,Benda Lakshanpur,72,87.08864609999998,23.0564269,927
1566,Telanbandi,73,87.07865919999998,23.0711212,927
1568,Tulderya,75,87.1260781,23.0600841,927
1569,Asnasundarpur,76,87.11984149999998,23.0495564,927
1571,Tilaghagri,78,87.1029985,23.0366038,927
1572,Saharghati,79,87.11609909999999,23.0301466,927
1574,Taldangra,81,87.10487020000002,23.0195276,927
1575,Amlatara,82,86.95364719999998,23.2115708,928
1576,Banktor,83,87.10362239999998,23.0001624,927
1578,Phulmati,85,87.10986120000003,22.9839086,927
1580,Machla,87,87.13854889999998,22.9829387,927
1581,Punesa,88,87.1310668,22.98578,927
1584,Ata,91,87.11984149999998,23.0138478,927
1585,Baharagarya,92,87.133561,23.0155835,927
1589,Jiakanali,96,86.9135745,22.9192254,925
1591,Dunduria,98,87.1535095,22.9861828,930
1592,Dhobajor,99,87.14478309999998,22.984538600000004,927
1596,Amjor,103,87.10487020000002,23.3229914,929
1597,Panchmura,104,87.16348070000002,22.9655287,927
1598,Adhkara,105,87.16472689999998,22.9789429,927
1599,Kurkutia,106,86.845249,22.9677289,925
1600,Jaypur,107,87.44801149999998,23.0551658,932
1601,Chak Jambedia,108,87.1759416,22.9568218,927
1602,Lalbandh,109,87.1709576,22.9507812,927
1604,Bhetuadanga,111,87.1684655,22.9418086,927
1605,Jambedia,112,87.0593037,23.3734537,929
1606,Resiagara,113,87.1958724,22.9571736,927
1608,Tatar,115,87.20458939999996,22.9855996,931
1611,Mahulbera,118,87.22388570000003,23.0223933,931
1612,Parirdihi,119,87.2182844,22.9903035,931
1613,Methena,120,87.2444182,23.2838477,929
1614,Majuri Prasadpur,121,87.2269973,23.0068237,931
1617,Uparshol,124,87.3996765,22.9814636,931
1618,Satmauli,125,87.26432,22.980684600000004,931
1619,Nachankonda,126,87.24068570000001,22.9787888,931
1620,Domakonda,127,87.2525044,22.976761,931
1621,Mandi,128,87.32397490000002,22.9519347,931
1622,Tirra,129,87.25561400000002,22.967142000000006,931
1623,Amdangra,130,87.26432,22.9568749,931
1624,Bhandarkaki,131,87.25312629999998,22.9551943,931
1625,Shaltara,132,86.9342411,23.524204,923
1626,Sonajhor,133,87.21703950000001,22.9471279,931
1628,Kaniari,135,87.2469064,22.9119306,931
1629,Mamrasol,136,87.26432,22.9211591,931
1630,Patharjora,137,87.27924089999998,22.9214141,931
1632,Dhuakaki,139,87.25312629999998,22.931384,931
1633,Sabrakon,140,87.26432,22.9449698,931
1634,Asthashol,141,87.37859170000002,22.9468891,931
1635,Gamarbani,142,87.29664249999998,22.984212600000006,931
1638,Golakpur,145,86.9135745,23.1036994,924
1640,Metyaldoba,2,86.9786757,22.962132,927
1642,Budhadhara,4,86.9811778,22.9502765,927
1644,Kharkhari,6,86.9861817,22.9444197,927
1645,Kharjuria,7,86.9861817,22.9384681,927
1646,Peripathar,8,86.9717941,22.944891,927
1647,Kadamara,9,87.0199442,23.0358124,927
1651,Bara Nimdiha,13,86.95865390000002,22.9319941,927
1652,Rengurbandh,14,86.95615059999999,22.9408735,927
1653,Rajabandh,15,86.94989179999996,22.9392661,927
1654,Mamra,16,87.26369820000002,22.9233807,931
1655,Baradhara,17,86.93361499999996,22.9255632,927
1656,Kukrakhondar,18,86.93361499999996,22.916636,927
1657,Gilirpahari,19,86.92860560000004,22.9076124,927
1660,Kalshuli,22,86.966163,22.9142822,927
1661,Bhalkamuri,23,86.9686658,22.9173056,927
1662,Betjharia,24,86.95489889999998,22.9036523,927
1664,Penruabaid,26,86.9886834,22.8938772,927
1666,Parshala,28,87.042439,22.854704,927
1667,Khapmayna,29,86.9886834,22.9117328,927
1669,Bankata,31,86.99868909999998,22.9148971,927
1670,Sinyajora,32,87.0049416,22.9284061,927
1672,Nutangar,34,87.01119320000002,22.9329871,927
1673,Junbakra,35,86.99993959999998,22.946167000000006,927
1675,Korkhi,37,87.0236941,22.9332208,927
1676,Jamda,38,86.88099090000001,22.9007378,926
1678,Jhikri,40,87.04368869999998,22.9276408,927
1679,Kusumkanali,41,87.03869089999998,22.9215962,927
1680,Baurishol,42,87.03181790000002,22.9251884,927
1681,Lakshmisagar,43,87.0130686,22.9263265,927
1683,Gotkanali,45,87.03869089999998,22.9156443,927
1684,Maidhara,46,87.04118989999998,22.909738600000004,927
1685,Jugidangra,47,87.0186942,22.9033682,927
1687,Kumarshol,49,87.00056490000001,22.9052606,927
1688,Sarenga,50,87.0199442,22.7679744,926
1689,Benjtabani,51,87.006192,22.8942064,927
1690,Benrebati,52,87.0186942,22.8914642,927
1691,Tilbari,53,87.0299433,22.8931618,927
1692,Bankhola,54,87.04181460000002,22.9045422,927
1693,Sarasbakra,55,87.0468121,22.9016587,927
1695,Birsingpur,57,87.37983220000002,23.3352443,934
1696,Bikrampur,58,87.1497698,23.169115100000006,930
1698,Kathjuria,60,87.03869089999998,22.8918362,927
1699,Nuniabad,61,86.9448841,23.165292800000003,924
1700,Harintuli,62,87.04368869999998,22.8830005,927
1701,Kaniabali,63,87.03869089999998,22.8769557,927
1702,Chhota Hetyagara,64,87.03056819999998,22.874573,927
1703,Bara Hetyagara,65,87.0199442,22.8751193,927
1704,Gorakata,66,87.02119420000002,22.8647262,927
1706,Malatibad,68,87.0343173,22.8552977,927
1709,Chotta Makarkol,71,87.0461875,22.8711422,927
1710,Asna,72,87.0336925,23.2487907,928
1712,Dhanishukni,74,87.05618109999998,22.8534694,927
1713,Ambakra,75,87.05118459999998,22.847425,927
1715,Kantashola,77,87.06492390000003,22.8580944,927
1718,Nimaipur,80,87.0686703,22.8685799,927
1720,Kumardoba,82,87.06617270000002,22.8834149,927
1722,Kallaicha,84,87.08365289999998,22.886711,927
1724,Talda,86,87.07865919999998,22.907452600000006,927
1726,Bardi,88,87.0605527,22.9063763,927
1730,Junkaria,92,87.0586792,22.927917800000003,927
1732,Shuknabad,94,87.06492390000003,22.9354728,927
1733,Baniadoba,95,87.0761622,22.946095,927
1734,Bhaduldoba,96,87.06492390000003,22.9473765,927
1736,Amakunda,98,87.04993530000002,22.941148100000003,927
1737,Kaharan,99,87.03619169999996,22.9423812,927
1738,Tarupur,100,87.0330676,22.946043,927
1739,Banshi,101,87.06367499999998,23.2196033,928
1740,Ganrra,102,87.02119420000002,22.9480535,927
1741,Saras Bakra,103,87.016194,22.9568874,927
1742,Shovarajpur,104,87.01119320000002,22.9567937,927
1743,Sonakanda,105,86.99618790000002,22.959487300000006,927
1744,Tapubaid,106,86.991185,22.9683201,927
1745,Jirabaid,107,87.0036911,22.9685558,927
1746,Banshkanali,108,87.01119320000002,22.9686967,927
1747,Jhariya,109,86.72780589999998,22.9512278,925
1748,Ghoradhara,110,87.0286936,22.969024,927
1749,Machatora,111,87.0261939,22.9570743,927
1752,Sushunia,114,86.96553730000002,23.3924893,924
1753,Uparsole,115,86.9748232,22.9162539,927
1754,Kansachora,116,87.054932,22.9650475,927
1755,Taldiha,117,87.06492390000003,22.9592801,927
1756,Shushunia,118,87.006192,23.1798516,930
1757,Karakanali,119,87.0898943,22.983545,927
1758,Jatiakanali,120,87.08864609999998,22.967155,927
1759,Koldoba,121,87.08490119999998,22.9536949,927
1760,Pathardoba,122,87.0998788,22.9658718,927
1762,Masatkhal,124,87.11984149999998,22.9721858,927
1764,Dudhiadoba,126,87.12108889999998,22.9498885,927
1765,Nama Dudhiadoba,127,87.133561,22.9501132,927
1766,Badageria,128,87.1410427,22.9472715,927
1767,Maulakanda,129,87.14353630000002,22.938388,927
1770,Runiara,132,87.1609881,22.9327473,927
1773,Jamirdiha,135,87.12483089999998,22.9365639,927
1774,Godabahara,136,87.1185941,22.9438914,927
1776,Bagakhulia,138,86.95615059999999,22.964679,925
1779,Simlapal,141,87.07035049999998,22.9167065,927
1781,Dhankhunia,143,87.0898943,22.9180741,927
1782,Patamechla,144,87.0961348,22.9256279,927
1783,Bhalukkhunia,145,87.10362239999998,22.9198118,927
1785,Doldere,147,87.10923729999998,22.9057771,927
1786,Bankata,148,86.99868909999998,22.9148971,927
1787,Arjjunia,149,87.1111088,22.9229236,927
1789,Roshana,151,87.12358359999998,22.9052921,927
1791,Jaleshwar,153,87.1410427,22.9056057,927
1794,Jhumka,156,87.1397958,22.8892141,927
1796,Lakshmipal,158,87.12483089999998,22.8948979,927
1798,Puipal,160,87.10986120000003,22.8946277,927
1799,Khamardanga,161,87.09488680000004,22.9003084,927
1800,Kushtara,162,87.30285579999996,23.0869912,931
1801,Khaergaria,163,87.0986308,22.8810313,927
1803,Shushinia,165,87.08490119999998,22.8525073,927
1807,Ghaghrakhulia,169,87.133561,22.8518985,927
1808,Ekaria Jambani,170,87.14478309999998,22.8595401,927
1811,Putiadaha,173,87.13480799999998,22.877219600000004,927
1812,Pithabakra,174,87.15101640000002,22.8849501,927
1813,Bagnada,175,87.1547561,22.877576,927
1814,Nekratapal,176,87.16472689999998,22.8837058,927
1817,Jambedia,179,87.0593037,23.3734537,929
1819,Bhedua,181,87.1167229,23.2718965,930
1820,Tikarpara,182,87.16971159999999,22.913557,927
1822,Patharkhamar,184,87.1709576,22.926972,927
1824,Pachaparar,186,87.1809251,22.9390532,927
1826,Barakhulia,188,87.1996084,22.9378942,927
1827,Keotdhara,189,87.20707970000002,22.923144,927
1830,Kuchakon,192,87.18964489999998,22.9139092,927
1831,Bandiara,193,87.1809251,22.9122673,927
1832,Digpar,194,87.1759416,22.9062267,927
1833,Kusmi,195,87.0686703,23.0233281,927
1834,Chakrashol,196,87.1834166,22.8944535,927
1836,Kushbakra,198,87.2008537,22.9096417,927
1837,Bhutsahar,199,87.1111088,23.2294025,930
1840,Beoncha,202,87.2145498,22.908393,927
1847,Banbedia,111,86.9386238,23.0387301,925
1849,Pirrabakra,113,86.95364719999998,23.0300926,925
1851,Khakrakanali,115,86.9611571,23.0123837,925
1852,Nagri,116,86.9448841,23.0165352,925
1853,Paharapatpur,117,86.9348672,23.0222933,925
1855,Jasara,119,86.91858540000001,23.0353676,925
1860,Arkama,124,86.9101292,23.0043342,925
1861,Rangibari,125,86.89603220000002,23.0022002,925
1862,Dhemnashol,126,86.8897655,23.0095163,925
1863,Kankata,127,87.05055999999998,23.2275398,928
1864,Dharramuli,128,86.89477889999998,23.0215155,925
1865,Mirgipahari,130,86.8834981,23.0287331,925
1866,Supur,131,86.8615556,23.0186319,925
1868,Bheduara,133,86.8797372,22.9974185,925
1870,Makrara,135,86.853403,23.0043383,925
1872,Nityanandapur,137,87.1927587,23.4561979,923
1874,Kubashol,139,86.8559116,23.031165100000006,925
1877,Tantikata,151,86.8396032,22.9966266,925
1879,Shibarampur,157,86.9686658,23.1196376,924
1880,Loadihi,158,86.76803220000002,22.9966769,925
1882,Satshol,160,86.755465,22.9934461,925
1883,Sarga,161,86.6144922,22.8149769,925
1884,Jhantipahari,162,86.90480409999998,23.3608223,924
1885,Sunrigara,163,86.77305809999999,22.9759525,925
1886,Damdi,164,86.9010449,22.8862494,926
1887,Phulhari,165,86.7705452,22.9669759,925
1888,Mukutmanipur,166,86.7919009,22.9569938,925
1889,Gorabari,167,86.77808359999999,22.952252,925
1890,Hadhadigara,168,86.7837366,22.9471594,925
1893,Bagjabra,171,86.79566849999998,22.9615326,925
1895,Peripathar,173,86.9717941,22.944891,927
1896,Dhagara,174,86.7893889,22.9777702,925
1898,Baraghutu,176,86.77933979999997,22.9894682,925
1899,Nadupara,177,86.79064489999998,22.9911841,925
1900,Susne,178,86.8006916,22.997336800000006,925
1901,Kadamberia,179,86.80822529999998,22.9915376,925
1903,Jalhari,181,86.9886834,23.250913,928
1905,Tentulchita,183,86.82077890000002,22.973937,925
1906,Amdoba,184,86.8308194,22.9800878,925
1907,Harangara,185,86.82579940000002,22.9889137,925
1908,Purandihi,186,86.8383485,22.986188100000003,925
1911,Senapatia,189,86.8559116,22.9895113,925
1914,Khatra,192,86.8546573,22.9731219,925
1917,Ledishol,195,86.8634368,22.9807335,925
1918,Chandania,196,86.8634368,22.962881,925
1920,Bhurudanga,198,86.8508942,22.9626336,925
1923,Mailihir,201,86.82730649999998,22.9595964,925
1924,Benkia,202,86.8308194,22.968186300000006,925
1925,Raktajura,203,86.8283095,22.9621856,925
1926,Ruparhir,204,86.81952369999998,22.9664735,925
1927,Jhariakocha,205,86.8107363,22.9558841,925
1931,Bandarkonda,209,86.82328919999998,22.9323313,925
1934,Baramatiala,212,86.8446218,22.937218,925
1936,Patpur,214,87.06117720000002,23.2314562,928
1937,Maharadihi,215,86.84963979999998,22.925415,925
1940,Mashara,218,86.8797372,22.9141039,925
1941,Goaladanga,219,86.91608000000002,23.0829225,924
1942,Baragari,220,86.8508942,22.7186145,926
1943,Datarampur,221,86.8634368,22.9361014,925
1944,Pithabaid,222,86.853403,22.9418548,925
1946,Murgadanga,224,86.84838529999998,22.9536576,925
1947,Bantilla,225,86.8596744,22.9494172,925
1948,Dakshinabad,226,86.86845290000002,22.9510776,925
1949,Saluajamda,227,86.87096070000003,22.9630289,925
1950,Jamda,228,86.88099090000001,22.9007378,926
1951,Nargashol,229,86.8847516,22.9737133,925
1953,Indkucha,231,86.89352559999998,22.9842988,925
1954,Muragram,232,86.8834981,22.9870783,925
1955,Hazamdihi,233,86.8985386,22.9903474,925
1956,Dhanara,234,86.9849308,22.7375562,926
1959,Chaka,237,86.92484830000002,22.9685413,925
1960,Karulpahari,238,86.8747223,23.4315964,924
1961,Sindurpeti,239,86.9448841,22.974878,925
1962,Baurishol,240,87.03181790000002,22.9251884,927
1963,Keshia,241,86.9367456,22.9962943,925
1964,Bhalaidiha,242,86.9169189,23.2891832,924
1965,Kapaskhera,243,86.95364719999998,22.9973626,925
1966,Tiring,244,86.95364719999998,22.9824848,925
1967,Katar,245,86.9613123,22.9911885,925
1969,Parashidanga,247,87.38851509999998,23.3993469,934
1971,Bagakhulia,249,86.95615059999999,22.964679,925
1972,Dahala,250,86.9317997,22.9489684,925
1976,Dumuria,254,87.1054941,23.4620457,923
1981,Radhanathpur,259,86.87096070000003,22.9422003,925
1984,Beniabaid,262,86.8860052,22.933568,925
1986,Bhedua,264,87.1167229,23.2718965,930
1988,Birkham,266,86.82956449999998,22.8714563,925
1990,Dakai,268,86.919838,22.9386885,925
1991,Karra,269,87.6734872,23.1425245,933
1992,Kapila,270,86.9235958,22.9283461,925
1993,Hetiashol,271,86.9110688,22.9310797,925
1994,Sikrabad,272,86.90355109999999,22.9279583,925
1996,Jiakanali,274,86.9135745,22.9192254,925
1998,Kuchiarmahar,276,86.91608000000002,22.9073709,925
1999,Guniada,1,86.8640638,23.368193100000006,924
2000,Chalka,2,86.76803220000002,23.1573184,924
2003,Elora,7,86.7438375,23.135629100000006,925
2004,Dhanarangi,8,86.73409339999998,23.1194401,925
2005,Lachipur,9,87.0158814,23.4086953,923
2009,Tilabad,13,86.765519,23.1096731,925
2013,Kadia,17,86.78813290000002,23.1220318,925
2016,Aralbara,20,86.79566849999998,23.1162349,925
2020,Lalbazar,24,87.5778935,22.9396217,932
2024,AralChhota,28,86.8283095,23.0960673,925
2025,Naria,29,86.81952369999998,23.091429100000006,925
2027,Hirakhon,31,86.81575790000002,23.0809414,925
2030,Mahaldanga,34,87.5185643,22.98336,932
2031,Ranga,35,86.7944127,23.084974,925
2032,Ashatara,36,86.78436459999998,23.078821,925
2035,Biradihi,39,86.7529512,23.0737192,925
2036,Diktor,40,86.75797870000002,23.0648974,925
2038,Bamni,42,86.76928869999998,23.0547157,925
2039,Kundurka,43,86.75797870000002,23.041098,925
2040,Paira,44,86.755465,23.0469966,925
2041,Simlabandh,45,86.7479232,23.0557671,925
2042,Bhedua,46,87.1167229,23.2718965,930
2043,Lutia,47,86.853799,23.0246121,925
2044,Jhapandihi,48,86.75797870000002,23.0321731,925
2046,Golakpur,50,86.9135745,23.1036994,924
2047,Bhutardihi,51,86.76300570000002,23.0263255,925
2052,Amjhuri,56,86.7944127,23.0611747,925
2053,Bijardihi,57,86.79315679999998,23.0447869,925
2057,Bhuchudungri,61,86.79566849999998,23.0240121,925
2059,Bhuakana,63,86.8057142,23.0212391,925
2060,Jambeda,64,86.81324719999998,23.0184151,925
2061,Arjunda,65,86.82077890000002,23.0185658,925
2062,Tirsulia,66,86.8182685,23.0274411,925
2064,Bauridihi,68,86.80822529999998,23.0302149,925
2065,Barkania,69,86.79943589999998,23.0374758,925
2071,Mirgi,75,86.81010859999998,23.0488469,925
2072,Hirbandh,76,86.81450249999996,23.0615789,925
2074,Chanpashol,78,86.8245443,23.07368,925
2076,Jhatpukhuria,80,86.8396032,23.056130300000003,925
2079,Husumdanga,83,86.8377211,23.0821243,925
2080,Bhogra,84,86.8508942,23.0756924,925
2082,Debidia,86,86.84963979999998,23.0979799,925
2083,Dhajamanipur,87,86.8634368,23.0878409,925
2084,Topabari,88,86.87096070000003,23.0790643,925
2085,Kaliapathar,89,86.9386238,23.1220352,924
2087,Baharamuri,91,86.8897655,23.069021,925
2089,Talgaria,93,86.86845290000002,23.0700897,925
2091,Uganpathar,95,86.84963979999998,23.0563297,925
2093,Pathardihi,97,86.8734685,23.0612632,925
2094,Jambedya,98,87.1560025,23.0814522,930
2095,Uparhir,99,86.88099090000001,23.058436,925
2096,Bhubandihi,100,86.87597609999997,23.0494119,925
2097,Maitibandh,101,86.8847516,23.039171,925
2098,Diasdihi,102,86.89101889999998,23.0437566,925
2099,Baragajra,103,86.89979180000002,23.0454156,925
2101,Kaliahuta,105,86.908563,23.0470741,925
2102,Jadurbankata,106,86.9091895,23.0418796,925
2104,Bagaldhara,129,86.90981590000001,23.0337097,925
2106,Mashanjhar,142,86.8596744,23.050578100000006,925
2108,Lalraydihi,144,86.84587629999999,23.0398918,925
2109,Bagjabra,145,86.79566849999998,22.9615326,925
2111,Bhojda,147,86.8396032,23.026379,925
2112,Palashbani,148,87.36308199999998,23.4041275,929
2113,Indpur,149,86.93611949999998,23.1636359,924
2114,Gobarda,152,86.8245443,23.0022774,925
2115,Deulagara,153,86.8094808,23.0079265,925
2118,Uttar Kendbana,1,86.7893889,23.2692908,924
2120,Kalipahari,3,86.8747223,23.4315964,924
2121,Narasingdhara,4,86.81450249999996,23.2579034,924
2122,Salukdanga,5,86.80445859999998,23.2577003,924
2123,Bhabrigara,6,86.79566849999998,23.2560349,924
2124,Niyasa,7,86.78813290000002,23.2558817,924
2125,Nutandihi,8,86.96366009999998,22.8755479,926
2128,Bhalukchal,11,86.78499269999998,23.2357419,924
2129,Chaka,12,86.92484830000002,22.9685413,925
2130,Uttarpayrachali,13,86.79315679999998,23.2411128,924
2131,Ambedya,14,86.79818019999998,23.2471633,924
2133,Bangram,16,86.8126195,23.246712,924
2134,Hatgram,17,86.8094808,23.2399565,924
2135,Beliagara,18,86.81324719999998,23.2266482,924
2136,Satami,19,86.80445859999998,23.2220091,924
2139,Raghudihi,22,86.78813290000002,23.223165100000006,924
2140,Gilirbona,23,86.79566849999998,23.2173695,924
2141,Ahanda,24,86.8016334,23.2111699,924
2142,Uttar Asanbani,25,86.81324719999998,23.2117763,924
2144,Kumirpathar,27,86.83458409999999,23.2166668,924
2145,Ledapalash,28,86.9448841,23.5043426,923
2147,Saerdi,30,86.82328919999998,23.1911573,924
2148,Kajalkura,31,86.7441518,22.9828021,925
2151,Dakshin Kendbana,34,86.78562079999998,23.1933704,924
2153,Kalachandpur,36,86.77305809999999,23.1901401,924
2154,Sialia,37,86.7686604,23.1982299,924
2155,Belut,38,86.76426239999998,23.191447600000004,924
2156,Natherdanga,39,86.7670897,23.1762615,924
2157,Brahmandiha,40,86.9993144,22.6909453,926
2160,Pabra,43,87.0299433,23.535714,923
2162,Petardi,45,86.8182685,23.1761837,924
2163,Bara Jorda,46,86.790352,23.17631,924
2165,Gopaldi,48,86.8383485,23.1795608,924
2166,Ghusikdanga,49,86.8446218,23.1752242,924
2167,Chaukighata,50,86.8383485,23.1646878,924
2168,Dakshin Asanbani,51,86.82579940000002,23.1674112,924
2170,Patirdang,53,86.8006916,23.1728547,924
2172,Gottarya,55,86.78813290000002,23.1607021,924
2173,Kelera,56,86.7831085,23.1695236,924
2174,Maity Dubrajapur,57,86.77839759999998,23.1697996,924
2176,Gandlugara,59,86.77808359999999,23.1545487,924
2177,Padulara,60,86.7893889,23.144367300000006,924
2178,Bhalukbasa,61,86.8006916,23.1550072,924
2181,Bamni,64,86.76928869999998,23.0547157,925
2183,Junbedya,66,86.81324719999998,23.1225388,924
2184,Dakshin Kamalpur,67,86.82077890000002,23.119715300000006,924
2187,Bhutama,70,86.81952369999998,23.1330765,924
2188,Phulkusma,71,86.8659449,22.70998,926
2189,Benahar,72,86.82956449999998,23.1570754,924
2191,Sonardanga,74,86.83332920000002,23.1407899,924
2192,Jugibad,75,86.83332920000002,23.1348405,924
2193,Nekrakonda,76,86.83583890000001,23.1259663,924
2194,Dakshin Payarachali,77,86.8446218,23.1157295,924
2195,Kaliapathar,78,86.9386238,23.1220352,924
2196,Belaruma,79,86.84587629999999,23.144015,924
2197,Rajudi,80,86.853403,23.1471395,924
2199,Garduara,82,86.84963979999998,23.1574762,924
2201,Kurchibedya,84,86.8546573,23.1694747,924
2203,Danga,86,86.8747223,23.1758217,924
2204,Panjangara,87,86.8057142,23.2740835,924
2206,Chhelebad,89,86.86845290000002,23.1593369,924
2207,Baga,90,86.86907990000002,23.1496813,924
2208,Niasha,91,86.88099090000001,23.1476853,924
2209,Jambedya,92,87.1560025,23.0814522,930
2211,Kendbona,94,87.0992548,23.4232693,923
2212,Beldangra,95,87.0536829,23.2878355,928
2213,Bandeuli,96,86.8596744,23.1279278,924
2214,Mayurnachana,97,86.8596744,23.1100786,924
2215,Kadamdeuli,98,86.8697068,23.104327100000006,924
2216,Bisharbera,99,86.87096070000003,23.117739,924
2217,Nadusenara,100,86.87096070000003,23.1266637,924
2218,Hetyapathar,101,86.88099090000001,23.1268614,924
2220,Kharakanali,103,86.8761328,23.1053835,924
2222,Jiarda,105,86.88099090000001,23.097112,924
2223,Banshketya,106,86.8847516,23.0867733,924
2224,Erodihi,107,86.89477889999998,23.0869698,924
2225,Tunamara,108,86.89101889999998,23.0973088,924
2226,Chakaltasahar,109,86.88851209999999,23.1061847,924
2228,Churamanipur,111,87.2444182,23.146987600000006,930
2229,Jagat Deuli,112,86.8897655,23.128521300000006,924
2230,Hitashi,113,86.90699690000002,23.1240243,924
2231,Hannya,114,86.91200839999998,23.1293282,924
2232,Deghariardihi,115,86.89979180000002,23.1346676,924
2234,Chaitandihi,117,86.89352559999998,23.1509065,924
2235,Mukhutidi,118,86.89101889999998,23.1568069,924
2236,Jirra,119,86.929858,23.4148429,924
2238,Siromonipur,121,87.58107940000002,22.9466393,932
2239,Kantakuli,122,86.9436321,23.2470725,928
2240,Chhatrabad,123,86.908563,23.1809486,924
2245,Mohanepara,128,86.95051769999998,23.1735823,924
2246,Bagdiha,129,86.95302129999996,23.166193300000003,924
2247,Dhobagere,130,86.966163,23.1642146,924
2248,Shiromanipur,131,87.5964182,22.9979489,932
2249,Nuniabad,132,86.9448841,23.165292800000003,924
2253,Bajora,136,86.91169520000003,23.1639049,924
2254,Manohara,137,86.9091895,23.156419,924
2257,Nayekhir,140,86.92610079999999,23.157492,924
2258,Indpur,141,86.93611949999998,23.1636359,924
2260,Banshi,143,87.06367499999998,23.2196033,928
2262,Panijia,145,86.7604923,22.8656079,925
2265,Dhengakend,148,86.9135745,23.2851545,924
2266,Bholarkhap,149,86.93361499999996,23.1338384,924
2267,Menjua,150,87.17999069999998,23.3403432,929
2269,Bheduashol,152,86.9066836,23.1147214,924
2270,Dangarampur,153,86.9091895,23.1073328,924
2271,Golakpur,154,86.9135745,23.1036994,924
2272,Bankata,155,86.99868909999998,22.9148971,927
2273,Botkula,156,86.919838,23.0934084,924
2274,Goaladanga,157,86.91608000000002,23.0829225,924
2275,Jugda,158,87.04368869999998,23.0288168,927
2276,Mauladanga,159,87.07928340000002,23.2578215,928
2278,Upar  Kechanda,161,86.90981590000001,23.0753629,924
2282,Nama Geryakula,165,86.92860560000004,23.0593638,924
2283,Dhansantra,166,86.93987589999998,23.0580938,924
2284,Nayada,167,86.9436321,23.0685795,924
2285,Upar Geryakula,168,86.93361499999996,23.0683863,924
2288,Kurpa,171,86.93987589999998,23.0878459,924
2289,Gunnath,172,86.95302129999996,23.0903302,924
2292,Brajarajpur,175,86.93361499999996,23.0951628,924
2294,Tentulchita,177,86.82077890000002,22.973937,925
2295,Kalpathar,178,86.9386238,23.226153600000004,928
2296,Kaliapathar,179,86.9386238,23.1220352,924
2298,Marlu,181,86.9511436,23.1133514,924
2300,Shirishganjal,183,86.95302129999996,23.1230564,924
2301,Gosainhir,184,86.9436321,23.1251069,924
2303,Ali Jhara,186,86.802656,23.3227176,924
2306,Tarkajor,189,86.988058,23.1579391,928
2307,Maukuri,190,86.9849308,23.1482109,924
2309,Atbhaichandi,192,86.9886834,23.1289444,924
2311,Geriakola,194,86.9649116,23.1299784,924
2312,Shibarampur,195,86.9686658,23.1196376,924
2316,Gharpathar,199,86.98555619999998,23.1192159,924
2317,Rowtara,200,86.66362690000003,22.8264226,925
2319,Maish Dabra,202,86.9949372,23.1067495,924
2321,Dhuniagar,204,86.9949372,23.0948487,924
2322,Jhaktor,205,86.9861817,23.108071,924
2323,Dumutor,206,86.98367979999998,23.0990979,924
2325,Khapkata,208,86.97116849999998,23.1048098,924
2326,Pathrator,209,86.96366009999998,23.1046662,924
2329,Kurkutia,212,86.845249,22.9677289,925
2331,Araldihi,214,86.9680401,23.0757418,924
2332,Jugibaid,215,86.95615059999999,23.0688199,924
2333,Chhatapur,216,86.95865390000002,23.0629174,924
2336,Kurusthalia,219,86.97492220000002,23.0587651,924
2337,Gosainijanara,220,86.96366009999998,23.0540872,924
2338,Patijanara,221,86.9511436,23.0508722,924
2340,Kalyansaer,1,86.88851209999999,22.9098117,926
2341,Kalapathar,2,86.8897655,22.9023968,926
2342,Bera,3,86.8860052,22.8948842,926
2343,Keshe,4,86.89352559999998,22.8920549,926
2344,Lachankunda,5,86.89603220000002,22.9069824,926
2346,Lalbazar,7,87.5778935,22.9396217,932
2347,Digarkanali,8,86.91608000000002,22.9014193,925
2349,Damdi,10,86.9010449,22.8862494,926
2350,Baburamhir,11,86.9091895,22.8856632,926
2352,Bankanali,13,86.9210906,22.8955644,926
2353,Indrajhor,14,86.92484830000002,22.8792697,926
2355,Tetulchita,58,86.92547449999998,22.8294345,926
2356,Buridhara,59,86.91858540000001,22.835998,926
2359,Jaljura,62,86.92610079999999,22.8539985,926
2360,Gumkihata,63,86.91858540000001,22.8568298,926
2365,Siarbeda,68,86.91608000000002,22.8508296,926
2367,Karrashol,70,86.93111040000002,23.3509289,924
2368,Chaturi Kalapathar,71,86.90981590000001,22.831365,926
2369,Chaturi Nutandihi,72,86.89540559999998,22.834806,926
2370,Chaturi,73,86.89352559999998,22.8384895,926
2371,Lachhipur,74,87.0158814,23.4086953,923
2372,Manhara,75,86.8985386,22.8504905,926
2374,Rautkhana,77,86.90355109999999,22.8714188,926
2375,Pirra,78,86.8897655,22.8785907,926
2376,Rangashol,79,86.8985386,22.8653699,926
2378,Dundar,81,86.8897655,22.854784,926
2379,Khejurbedia,82,86.8734685,22.85893,926
2380,Sonagara,83,86.8747223,22.8425872,926
2381,Lohamerya,84,86.8897655,22.8250247,926
2383,Bhadli,86,86.8847516,22.8130232,926
2384,Jhari,87,86.86469090000001,22.8185837,926
2385,Karambera,88,86.8471308,22.8212148,926
2387,Murkum,90,86.75420809999999,22.7449623,925
2388,Kadmagar,91,86.80445859999998,22.8233446,926
2390,Dhenga-am,93,86.8446218,22.8062858,926
2391,Turubandh,94,86.8396032,22.794283,926
2393,Dangarsai,96,86.9110688,22.7287116,926
2395,Asurgerya uttar,98,86.89477889999998,22.8072659,926
2396,Khairdungri,99,86.90981590000001,22.8075567,926
2398,Panrari,101,86.92484830000002,22.8197503,926
2400,Hariharganj,103,86.9235958,22.812286,926
2402,Rautara,105,86.66362690000003,22.8264226,925
2403,Shiromanipur,106,87.5964182,22.9979489,932
2405,Raipur Bazar,139,86.94613609999998,22.803789,926
2408,Kajalkura,142,86.7441518,22.9828021,925
2410,Kankrashol,144,86.93611949999998,22.7857407,926
2411,Jamshol,145,87.4083557,23.1854633,933
2412,Banpathari,146,86.90981590000001,22.7956523,926
2413,Niljora,147,86.9110688,22.7822839,926
2415,Khardda,149,86.8797372,22.7831652,926
2418,Kalashol,152,86.8609285,22.7694057,926
2419,Jarka,153,86.84587629999999,22.7750625,926
2420,Sara,154,86.8439945,22.7698174,926
2421,Kuchaipal,155,86.95990549999998,23.046577,924
2422,Malshol,156,86.8396032,22.7585707,926
2423,Samarpacha,157,86.8546573,22.7588665,926
2425,Ledra,159,86.8671989,22.7501834,926
2426,Kharigerya,160,86.8847516,22.7535013,926
2428,Motgoda,162,87.0199442,22.7679744,926
2429,Sarigari,163,86.90605710000001,22.7554016,926
2432,Rajgan,166,86.92860560000004,22.7766684,926
2434,Jashpara,168,86.94112799999998,22.7620265,926
2437,Uparbanda,171,86.95615059999999,22.7920748,926
2438,Dublala,172,86.97116849999998,22.7923593,926
2439,Simli,201,86.9686658,22.7833832,926
2440,Barapara,202,86.9649116,22.7728952,926
2442,Danrpara,204,86.95364719999998,22.7622647,926
2444,Dulapara,231,86.97116849999998,22.7447382,926
2447,Budha Kalsapa,234,86.95364719999998,22.756312,926
2448,Belbani,235,86.94112799999998,22.7560739,926
2449,Amchurya,236,86.94613609999998,22.7472403,926
2450,Benakata,237,86.9436321,22.7382637,926
2451,Patlurki,238,86.9386238,22.7351919,926
2452,Demushunya,239,86.929858,22.7365127,926
2453,Satpatta,240,86.919838,22.7303682,926
2454,Mandalkuli,241,86.8973869,22.7535066,926
2456,Asurgerya,243,86.8897655,22.7297887,926
2458,Amritpal,245,86.8747223,22.7294967,926
2459,Dudhya,246,86.8546573,22.7410097,926
2462,Raspal,249,86.82956449999998,22.7345639,926
2465,Shushunia,252,87.006192,23.1798516,930
2466,Banshinala,253,86.82391679999998,22.7009704,926
2467,Hatkata,254,86.82956449999998,22.7107546,926
2469,Baragari,256,86.8508942,22.7186145,926
2471,Sagarchaka,258,86.8734685,22.7160791,926
2472,Kamalpur,259,86.84650359999998,23.3009283,924
2473,Chapapal,260,86.89101889999998,22.7223723,926
2474,Dhekikata,261,86.9010449,22.7255423,926
2475,Dangarsai,262,86.9110688,22.7287116,926
2481,Chelepara,268,86.9436321,22.7323109,926
2482,Laupara,269,86.95364719999998,22.7265484,926
2483,Kukrajuri,270,86.95865390000002,22.717714,926
2485,Saltora,272,86.9342411,23.524204,923
2486,Kenduadangri,273,86.95364719999998,22.7325012,926
2487,Babaida,274,86.95615059999999,22.7414778,926
2490,Nehilya,277,86.97116849999998,22.735809,926
2491,Phulberia,278,87.2307309,23.3386414,929
2492,Dhanara,279,86.9849308,22.7375562,926
2493,Penchakola,298,86.9886834,22.7301855,926
2495,Kharkashuli,300,86.97617340000002,22.7180446,926
2497,Maroshol,302,86.97116849999998,22.7119974,926
2499,Akhuapal,304,86.9511436,22.7086424,926
2500,Patmauli,305,86.94863989999998,22.6996655,926
2502,Jamda,307,86.88099090000001,22.9632255,925
2503,Shubnabandi,308,86.90981590000001,22.706365,926
2507,Chamtabaid,312,86.8734685,22.695245,926
2508,Phulkusma,313,86.8659449,22.70998,926
2509,Namoshol,314,86.8609285,22.7009533,926
2510,Mandaldiha,315,86.84963979999998,22.6932918,926
2511,Dhau,316,86.853403,22.6829484,926
2514,Melera,319,86.8847516,22.6820703,926
2515,Barkala,320,86.8784835,22.665578600000003,926
2518,Maulashol,323,86.91482719999998,22.6886028,926
2519,Lurka,324,86.90981590000001,22.6706479,926
2520,Gochda,325,86.89101889999998,22.6568918,926
2522,Chaka,327,86.92484830000002,22.9685413,925
2523,Poshda,328,86.91482719999998,22.6409788,926
2524,Murachhara,329,86.929858,22.6353127,926
2525,Dheko,330,86.9448841,22.6475048,926
2526,Chorkul,331,86.92484830000002,22.6530766,926
2527,Golor,332,86.9348672,22.6651739,926
2528,Baksi,333,86.9448841,22.6713174,926
2532,Phutiberya,337,86.93611949999998,22.6934745,926
2533,Bandarbani,338,86.9511436,22.6848305,926
2534,Katapal,339,86.95615059999999,22.6879018,926
2535,Pechhela,340,86.9699172,22.6777438,926
2538,Katalda,343,86.9811778,22.7062327,926
2540,Tikarpara,359,87.16971159999999,22.913557,927
2541,Thakurabada,360,86.9811778,22.697303100000006,926
2545,Gobarda,364,86.8245443,23.0022774,925
2546,Baradi Kalapathar,15,86.93987589999998,22.8795582,926
2547,Baradi,16,86.93611949999998,22.8869259,926
2548,Dalambhija,17,86.93361499999996,22.8958054,926
2549,Balguma,18,86.9436321,22.9019491,927
2550,Chuagara,19,86.94989179999996,22.8916533,926
2551,Bhangadeuli,20,86.95990549999998,22.8918442,926
2552,Shushunia,21,87.006192,23.1798516,930
2553,Maukura,22,86.95489889999998,22.8679413,926
2554,Belatikri,23,86.9448841,22.8677503,926
2555,Guniada,24,86.8640638,23.368193100000006,924
2556,Panchur,25,86.95364719999998,22.8515495,926
2558,Bamundihi,27,86.966163,22.8666675,926
2559,Nutandihi,28,86.96366009999998,22.8755479,926
2560,Jamkanali,29,86.9699172,22.8860825,926
2561,Paryashol,30,86.9886834,22.8849493,927
2563,Sareskol,32,86.9692915,22.8585428,926
2565,Jhulishol,34,86.9811778,22.8639757,926
2566,Rajakhas,35,86.98993420000002,22.862652800000006,926
2567,Chamkura,36,86.99681319999998,22.8798944,926
2570,Patgara,39,86.99993959999998,22.8687929,926
2571,Pirargari,40,86.853403,22.8972209,925
2572,Chhota Amlatora,41,86.9993144,22.8546448,926
2574,Bara Amlatora,43,86.9936865,22.8552832,926
2575,Neturpur,44,86.9811778,22.8550475,926
2576,Chhota Goaldangra,45,86.98367979999998,22.8491426,926
2577,Bara Goaldangra,46,86.9861817,22.8432375,926
2579,Barpakhan,48,86.97116849999998,22.839978,926
2580,Bara Murarpur,49,86.9686658,22.8458827,926
2581,Jamirapara,50,86.96366009999998,22.8517399,926
2582,Khalaimura,51,86.9611571,22.8397882,926
2583,Tapta,52,86.94989179999996,22.8380858,926
2584,Banshkhopa,53,86.95051769999998,22.8477699,926
2585,Kadamdahara,54,86.94613609999998,22.8454543,926
2588,Kotalshol,108,86.94112799999998,22.8185741,926
2590,Jhola,110,86.9511436,22.8187651,926
2595,Beoncha,115,87.2145498,22.908393,927
2596,Beliakala,116,86.98555619999998,22.8305772,926
2597,Bara Birbhanpur,117,86.991185,22.8403556,926
2598,Chhota Birbhanpur,118,86.99868909999998,22.8375204,926
2600,Chatiasol,120,87.00994299999998,22.8332667,926
2601,Khamani,121,87.02494399999998,22.8394987,926
2602,Tantibaria,122,87.03619169999996,22.8471479,926
2607,Bara Jamabedya,127,87.01119320000002,22.8198971,926
2609,Sukhadali,129,86.99868909999998,22.8226395,926
2610,Kherurabad,130,86.9943119,22.8247895,926
2612,Bara Maliara,132,87.22864809999999,23.475484,929
2614,Katgara,134,86.9786757,22.8103583,926
2616,Bagjanta,136,86.9611571,22.8159793,926
2617,Sidi,137,86.95865390000002,22.8099794,926
2621,Tapaberia,175,86.97930120000002,22.7992093,926
2623,Chhota Jamabedya,177,86.98993420000002,22.8150346,926
2624,Kusumtikri,178,86.99868909999998,22.810734600000004,926
2625,Betjhor,179,87.0086927,22.8079454,926
2626,Botha,180,86.99868909999998,22.8018058,926
2627,Bhangadali,181,86.9886834,22.8016181,926
2628,Ghungia,182,86.98367979999998,22.7955715,926
2630,Bara Amjhor,184,87.00994299999998,22.7975518,926
2631,Chhota Amlatara,185,87.0299433,22.809829,926
2632,Bara Amlatara,186,87.03619169999996,22.8144092,926
2633,Kenduadangri,187,86.95364719999998,22.7325012,926
2634,Telijant,188,87.0486861,22.8176162,926
2635,Bhalukchira,189,87.054932,22.8043376,926
2638,Nekrapahari,192,87.03994039999998,22.7921559,926
2640,Beruabaid,194,87.0141757,22.7905102,926
2642,Chhota Amjhor,196,87.006192,22.7870646,926
2643,Kuchlaghati,197,86.99868909999998,22.7869244,926
2645,Phulberia,199,87.2307309,23.3386414,929
2646,Makalrangi,200,86.97617340000002,22.7716198,926
2649,Danrkini,208,86.9949372,22.773460600000003,926
2651,Murku,210,87.0149438,22.7738342,926
2655,Bamnishol,214,87.06492390000003,22.774756600000003,926
2657,Hatbari,216,87.07491359999999,22.75708,926
2658,Karbhanga,217,87.0774107,22.7422426,926
2659,Bhadkunra,218,87.06617270000002,22.7554322,926
2660,Asanjhor,219,87.054932,22.7567145,926
2661,Khaerpahari,220,87.03994039999998,22.7504857,926
2662,Bhalukkhunya,221,87.0336925,22.7578116,926
2663,Keshia,222,86.9367456,22.9962943,925
2664,Sarenga,223,87.0199442,22.7679744,926
2665,Chhota Sarenga,224,87.02119420000002,22.7665094,926
2666,Banshi,225,87.06367499999998,23.2196033,928
2667,Nimdangra,226,86.99868909999998,22.763113600000004,926
2668,Chhota Shalbani,227,86.9980638,22.756405,926
2670,Amdani,229,86.9886834,22.7599497,926
2672,Jetpara,280,86.99306120000001,22.747382100000006,926
2674,Bandarshol,282,87.006192,22.7424187,926
2675,Bikrampur,283,87.1497698,23.169115100000006,930
2676,Jhatipahari,284,86.90480409999998,23.3608223,924
2677,Jamshol,285,87.4083557,23.1854633,933
2678,Baligura,286,87.0261939,22.7487434,926
2679,Asna,287,87.0336925,23.2487907,928
2680,Chhota Garra,288,87.04118989999998,22.7371144,926
2681,Bara Garra,289,87.05837149999998,22.748838600000006,926
2682,Dakharang,290,87.054932,22.7329021,926
2683,Kadma,291,87.04368869999998,22.7252542,926
2684,Chingra,292,86.90605710000001,23.2076716,928
2686,Shankaria,294,87.016194,22.7277224,926
2687,Jamrepara,295,87.006192,22.7186067,926
2689,Chautar,297,87.0011902,22.7304195,926
2690,Taldiha,345,87.06492390000003,22.9592801,927
2692,Rasunia,347,86.99868909999998,22.7125137,926
2694,Gargarya,349,87.016194,22.7128397,926
2695,Agaya,350,87.04368869999998,23.1954315,928
2696,Ampata,351,87.03619169999996,22.7161863,926
2699,Indabinda,354,87.01463129999998,22.699788100000006,926
2701,Janapara,356,87.0086927,22.6918641,926
2704,Makarkol,365,87.01119320000002,22.6859574,926
2705,Jukhanala,366,87.016194,22.6800969,926
2707,Belapal,368,87.006192,22.6739578,926
2711,Majura,372,87.0149438,22.6547718,926
2712,Ghugijan,1,86.7428946,23.0259148,925
2715,Gosaindihi,4,86.929858,23.2780367,928
2716,Tuman,5,86.7378655,22.9960614,925
2717,Kusumkhundi,6,86.7290634,22.9884431,925
2718,Kajalkura,7,86.7441518,22.9828021,925
2722,Narkoli,11,86.7290634,22.9765426,925
2723,Nilgiri,12,86.71900199999996,22.964435100000006,925
2725,Sarenggarh,14,86.7391229,22.9588978,925
2726,Dudhajharna,15,86.7529512,22.960667800000003,925
2727,Pareshnath,16,86.7479232,22.9546148,925
2728,Kamarkuli,17,86.9649116,23.3144074,924
2731,Hatikheda,20,86.75420809999999,22.9354035,925
2733,Chiada,22,86.7403801,22.9485102,925
2734,Punnapani,23,86.7359795,22.9432134,925
2735,Puddi,24,86.72780589999998,22.9452773,925
2738,Gholkuri,27,86.70893840000002,22.9344757,925
2741,Laekdihi,30,86.73032099999998,22.9304526,925
2744,Ladda,33,86.7391229,22.9172437,925
2745,Lipidiri,34,86.73032099999998,22.9126006,925
2746,Ramdungri,35,86.72277530000002,22.9183965,925
2747,Dhanara,36,86.9849308,22.7375562,926
2749,Rudra,38,86.73660819999998,22.9023154,925
2751,Keshra,40,86.85277579999996,23.265363600000004,924
2752,Rajshol,41,87.4529661,23.067150100000006,932
2753,Thutashol,42,86.76426239999998,22.929657100000004,925
2755,Chhatardoba,44,86.77933979999997,22.9240114,925
2760,Chaitandihi,49,86.89352559999998,23.1509065,924
2761,Kheriakocha,50,86.7928428,22.9187044,925
2762,Bagsanda,51,86.79064489999998,22.9108496,925
2765,Chirkunkanali,54,86.7743145,22.9120081,925
2766,Jorakend,55,86.76740389999998,22.9200507,925
2768,Palashbani,57,87.36308199999998,23.4041275,929
2769,Shukhla,58,86.77557089999998,22.8986438,925
2770,Maukanali,59,86.7831085,22.8987959,925
2771,Budhkhila,60,86.78436459999998,22.8884068,925
2776,Kama,65,86.73409339999998,22.881436,925
2777,Benkakocha,66,86.71397040000002,22.892925,925
2778,Kulam,67,86.71397040000002,22.8631706,925
2779,Makhnu,68,86.69887279999998,22.8569086,925
2780,Javi,69,86.72780589999998,22.8500645,925
2781,Bagdiha,70,86.95302129999996,23.166193300000003,924
2782,Chaltha,71,86.7391229,22.8577345,925
2783,Bethuala,72,86.7491802,22.8757926,925
2784,Panijia,73,86.7604923,22.8656079,925
2785,Pithagerya,74,86.7705452,22.877713600000003,925
2786,Ranibandh,75,86.7831085,22.8660646,925
2787,Bhurkura,76,86.7944127,22.8826576,925
2789,Chilagara,78,86.80445859999998,22.88881,925
2790,Keliapathar,79,86.914901,23.134045,924
2791,Hetiapathar,80,86.82328919999998,22.8996003,925
2792,Bikramdihi,81,86.79943589999998,22.9065628,925
2794,Banshol,83,87.23321980000001,23.3505837,929
2796,Khutakata Krishnanagar,85,86.8245443,22.9130154,925
2799,Jalneja,88,86.85842020000003,22.9151736,925
2800,Puranpani,89,86.8532462,22.9014953,925
2801,Bhabanipathar,90,86.83583890000001,22.9028251,925
2802,Shuknibasa,91,86.7944127,22.7398181,925
2803,Dhadkidihi,92,86.8408579,22.8939976,925
2804,Nutandihi,93,86.96366009999998,22.8755479,926
2805,Puada,94,86.8508942,22.8912201,925
2806,Pirargari,95,86.853403,22.8972209,925
2807,Chholagara,96,86.8596744,23.324240300000003,924
2808,Dhadanga,97,86.8659449,22.9004432,925
2809,Jamda,98,86.88099090000001,22.9632255,925
2810,Khamardanga,99,87.09488680000004,22.9003084,927
2811,Malcharar,100,86.8697068,22.890102,925
2812,Madandihi,101,86.87597609999997,22.8857611,925
2813,Haludkanali,102,86.79943589999998,22.8530018,925
2814,Bhalkadungri,103,86.8747223,22.8723456,925
2815,Gosainidihi,104,86.86469090000001,22.860246,925
2816,Hakim Sinan,105,86.84963979999998,22.8599502,925
2817,Churapathar,106,86.8446218,22.847948,925
2818,Nachna,107,86.8270545,22.8446248,925
2819,Tungcharar,108,86.84963979999998,22.8718532,925
2820,Malbera,109,86.8596744,22.8839537,925
2821,Birkham,110,86.82956449999998,22.8714563,925
2822,Rajakata,111,86.81952369999998,22.8772081,925
2823,Buriam,112,86.81450249999996,22.859254,925
2824,Halud Kanali,113,86.79943589999998,22.8530018,925
2828,Jamgerya,117,86.763775,22.8335913,925
2830,Katiam,119,86.76677559999997,22.8553204,925
2831,Ledapakur,120,86.7454089,22.8504236,925
2833,Mitha-am,122,86.75420809999999,22.8282851,925
2834,Barapacha,123,86.73409339999998,22.821924600000006,925
2835,Khata-am,124,86.71397040000002,22.8215128,925
2836,Raygar,125,86.71397040000002,22.8393664,925
2837,Gunpura,126,86.69887279999998,22.8450066,925
2838,Khejura,127,86.68628790000002,22.8536729,925
2839,Ramgar,128,86.6736997,22.8444852,925
2840,Rautara,129,86.66362690000003,22.8264226,925
2842,Jhilimili,131,86.6384357,22.8139937,925
2844,Bhurrudanga,133,86.62457509999999,22.8003125,925
2845,Kasakend,134,86.63339599999998,22.8079368,925
2846,Serengda,135,86.65355199999998,22.796457,925
2852,Gobindashol,141,87.10674190000002,23.3535138,929
2853,Bheduashol,142,86.9066836,23.1147214,924
2854,Muchikata,143,86.69887279999998,22.8092998,925
2856,Shyamadihi,145,86.6938392,22.7972934,925
2857,Haramgara,146,86.70390590000002,22.779646600000003,925
2858,Maisamura,147,86.70390590000002,22.767743600000006,925
2859,Phuljhor,148,86.72403299999998,22.7562527,925
2861,Kawatanga,150,86.72403299999998,22.7860107,925
2863,Goalmuri,152,86.71774409999998,22.8052241,925
2864,Sutan,153,86.7391229,22.8041729,925
2865,Bhulagara,154,86.7567219,22.7956029,925
2866,Laladi,155,86.76803220000002,22.8241012,925
2867,Bauripal,156,86.77933979999997,22.8228412,925
2869,Katro,158,86.79943589999998,22.8053893,925
2870,Dhankura,159,87.07860440000002,23.2324146,928
2871,Huangkhana,160,86.7944127,22.7933854,925
2872,Punshya,161,86.77933979999997,22.8049865,925
2873,Sindri-am,162,86.77933979999997,22.7930832,925
2874,Buchiburi,163,86.7504372,22.7820844,925
2875,Dhanjhar,164,86.8094808,22.7936861,925
2876,Chhendapathar,165,86.75420809999999,22.7628178,925
2877,Satnala,166,86.7441518,22.7507104,925
2878,Murkum Chhotatung,167,86.75420809999999,22.7449623,925
2879,Singlahar,168,86.76426239999998,22.7392133,925
2881,Purnapani Chhotatung,170,86.78436459999998,22.7515212,925
2882,Purnapani Baratung,171,86.77933979999997,22.7633243,925
2885,Chalkigara,174,86.81450249999996,22.7878342,925
2887,Madankata,176,86.8283095,22.789596,925
2888,Dangarda,177,86.8182685,22.7745171,925
2889,Janta Dumur,178,86.82337,22.7671644,926
2890,Barikul,179,86.7944127,22.7695781,925
2891,Lep-am,180,86.80508640000002,22.7556551,925
2892,Shuknibasa,181,86.7944127,22.7398181,925
2893,Majgerya,182,86.77933979999997,22.7276124,925
2894,Birbandh,183,87.11097120000002,23.2097961,930
2895,Dudhenala,184,86.7944127,22.7279139,925
2897,Kharujhor,186,86.80445859999998,22.716209600000006,925
2901,Nityanandapur,4,87.1927587,23.4561979,923
2903,Sancha,6,87.27302440000003,23.1876516,931
2905,Patlapur,8,87.4133145,23.1260292,931
2906,Loharara,9,87.26432,23.1592347,931
2908,Antaree,11,87.2829703,23.1729455,931
2909,Jangalmahal,12,87.40339639999998,23.0663475,932
2910,Layekbandh,13,87.3003706,23.1881206,931
2911,Tarajurigangarampur,14,87.30782579999996,23.2180015,931
2912,Narikala,15,87.3289427,23.2198475,931
2914,Chuamasina,17,87.33639339999998,23.1991455,931
2916,Chakchuamasina,19,87.3686661,23.1788569,931
2921,Bhara,24,87.0461875,23.6029187,923
2922,Bhagarara,25,87.3996765,23.186808600000006,931
2923,Sanatanpur,26,87.3984365,23.1733979,931
2925,Mathurabihari,28,87.3996765,23.1451489,931
2930,Patlapur,33,87.4133145,23.1260292,931
2931,Hinjuri,34,87.3996765,23.1213423,931
2932,Gumut,35,87.38355370000002,23.1255408,931
2933,Kuldangar,36,87.37983220000002,23.1388704,931
2935,Bendara,38,87.35997950000002,23.1534194,931
2936,Ramsundarpur,39,87.35749729999998,23.165280600000006,931
2937,Dapanjuri,40,87.34880860000001,23.1547206,931
2938,Dhirkona,41,87.34880860000001,23.1666232,931
2943,Banshkopa,46,87.3103107,23.176388100000004,931
2947,Birra,50,87.29042840000002,23.1462936,931
2948,Benda,51,87.27748359999998,23.1350833,931
2949,Ranikhamar,52,87.26805069999996,23.1280557,931
2951,Konarbandh,54,87.27426779999998,23.117748,931
2955,Dharapat,58,87.53834920000001,23.034268,932
2962,Beliara,65,86.9886834,23.352041600000003,924
2963,Dejhat,66,87.3686661,23.131246,931
2968,Uliara,71,87.38851509999998,23.1077674,931
2971,Jangalbankati,74,87.36990689999998,23.0791885,931
2972,Radhadamodarpur,75,87.3686661,23.071728,931
2974,Hereparbbat,77,87.3537738,23.0774325,931
2975,Madhuban,78,87.3525325,23.0878276,931
2977,Penara,80,87.34880860000001,23.0952052,931
2979,Dihar,82,87.35501500000002,23.1206035,931
2980,Janta,83,87.3438429,23.1248804,931
2981,Layer,84,87.33109879999998,23.1233882,931
2985,Abantika,88,87.3103107,23.1138999,931
2987,Dwarika,90,87.30906829999998,23.1004879,931
2992,Kelemele,95,87.29539969999998,23.0749609,931
2993,Churamanipur,96,87.2444182,23.146987600000006,930
2995,Dwadashbari,98,87.2879425,23.0629302,931
2998,Bishnupur Municipality,101,87.31652220000002,23.0678795,931
2999,Chougan,102,87.3289427,23.0472569,931
3001,Shiromanipur,104,87.5964182,22.9979489,932
3002,Mayrapukur,105,87.31403770000001,23.058909600000003,931
3003,Dhengapathar,106,87.35749729999998,23.0551744,931
3005,Tribanka,108,87.3934761,23.0304712,931
3008,Bangele,111,87.41207490000002,23.0114292,931
3009,Benabandi,112,87.26058909999998,23.0297257,930
3010,Khanabari,113,87.3959564,22.9977728,931
3014,Marar,117,87.3388767,23.0176624,931
3017,Pirragara,120,87.3227328,23.0188796,931
3021,Baramlai,124,87.2829703,23.0509415,931
3023,Khuliamuri,126,87.28918540000002,23.0287277,931
3024,Harabati,127,87.27426779999998,23.0106164,931
3026,Lohari,129,87.28918540000002,22.9989668,931
3027,Chorkundu,130,87.3040984,23.0051723,931
3028,Karra,131,87.6734872,23.1425245,933
3029,Kulupukur,132,87.3103107,23.0156939,931
3031,Kulaijuri,134,87.32397490000002,23.0055078,931
3034,Chitrang,137,87.33390990000002,22.975912,931
3035,Baliguma,138,87.0543075,23.1294341,930
3037,Taldangra,140,87.10487020000002,23.0195276,927
3039,Majdiha,142,87.2182844,23.1896737,930
3040,Hetagara,143,87.34880860000001,22.9940184,931
3041,Chanchar,144,87.37238839999998,22.9988737,931
3043,Uparamdahara,146,87.36742530000002,22.9839102,931
3045,Chhotabankadaha,148,87.3289427,22.9639235,931
3049,Kusumdiha,152,87.36494350000002,22.9689874,931
3050,Dhanshol,153,87.3624615,22.9600171,931
3052,Hulmara,155,87.38355370000002,22.9707822,931
3053,Uparsole,156,86.9748232,22.9162539,927
3054,Kharkata,157,87.4133145,22.977221,931
3056,Agunkumari,159,87.42818779999998,22.9715088,931
3058,Asthasole,161,87.2401893,22.912833600000006,931
3060,Jiabandi,163,87.40339639999998,22.9413418,931
3063,Bagsara,3,87.4542046,23.1162753,933
3064,Ijjatpur,4,87.4616353,23.1134184,932
3065,Jujur,5,87.4678266,23.1090533,932
3067,Ruishar,7,87.4492502,23.0983396,932
3069,Bikrampur,9,87.1497698,23.169115100000006,930
3070,Sainda,10,87.45482390000002,23.0872688,932
3071,Hajipur,11,87.45668169999998,23.0806023,932
3074,Padumpur,14,87.4418175,23.0654828,932
3075,Rajsole,15,87.44797790000001,23.0607574,932
3077,Rautkhanda,17,87.4727791,23.0853236,932
3078,Shimulairi,18,87.4789689,23.0988146,932
3079,Chaltakonda,19,87.48887099999996,23.1108759,932
3082,Bhitsayer,22,87.5086686,23.1052359,932
3085,Kundupushkarini,25,87.47098700000002,23.0763657,932
3088,Balidoba,28,87.4876333,23.0677022,932
3089,Jamdigri,29,87.4789689,23.069053,932
3092,Bagajol,32,87.4789689,23.0541718,932
3093,Supur,33,86.8615556,23.0186319,925
3094,Rajagram,34,87.03869089999998,23.2161622,928
3095,Salda,35,87.4628736,23.0494513,932
3096,Joypur,36,87.44801149999998,23.0551658,932
3097,Nutangram Radhamohanpur,37,87.3934761,23.0542806,932
3098,Katul,38,87.4182728,23.0427807,932
3105,Chamat,45,87.4839202,23.033416100000004,932
3106,Digpar,46,87.1759416,22.9062267,927
3108,Kunchiakole,48,87.4678266,23.0197671,932
3110,Radhamadhabpur,50,87.43438359999998,23.0117904,932
3111,Khanabari,51,87.3959564,22.9977728,931
3113,Bajemaynapur,53,87.4727791,23.001987300000003,932
3116,Mahishabandi,56,87.4789689,22.9857148,932
3117,Parairi,57,87.4667126,22.9849775,932
3119,Balibil,59,87.4727791,22.9662692,932
3122,Makarandapur,62,87.44801149999998,22.9896865,932
3123,Shiberdanga,63,87.4393397,22.982106100000006,932
3126,Parshal,66,87.4740171,22.9528941,932
3132,Baliguma,72,87.0543075,23.1294341,930
3133,Betri,73,87.44305639999996,22.9360292,932
3134,Angaria,74,87.2394415,23.23021,930
3137,Dhengartala,77,87.42199120000002,23.109803,932
3141,Ghogra,81,87.58036390000002,23.0170536,932
3145,Jangalmahal,85,87.40339639999998,23.0663475,932
3148,Banshi,88,87.06367499999998,23.2196033,928
3151,Chhatina,91,86.9649116,23.3084589,924
3157,Parashe,97,87.5507104,23.0761282,933
3162,Chhatraara,102,87.5235113,23.0608249,932
3163,Jamshol,103,87.4083557,23.1854633,933
3164,Haldu,104,87.5160906,23.0696379,932
3166,Bhandargar,106,87.50310139999998,23.0686902,932
3167,Panchpeke,107,87.50372,23.0605152,932
3168,Namchhara,108,87.4962961,23.0544458,932
3170,Gelia,110,87.51237970000004,23.0502339,932
3171,tanadighi,111,87.52449179999998,23.0543174,932
3172,Paschim Karakbere,112,87.5309308,23.049035,932
3173,Dasdighi,113,87.52598459999999,23.0430053,932
3174,Shukjora,114,87.5160906,23.0368983,932
3178,Kusumdighi,118,87.50372,23.0188461,932
3179,Ghoradubi,119,87.49443989999996,23.0209325,932
3180,Maynapur,120,87.49258370000003,23.0082534,932
3182,Hijaldiha,122,87.48948979999999,22.9836486,932
3184,Ashurali,124,87.51237970000004,22.996658,932
3185,Mahaldanga,125,87.5185643,22.98336,932
3186,Nachur,126,87.5188933,22.9709162,932
3190,Jadabnagar,130,87.4752551,22.9395187,932
3191,Hatbari,131,87.07491359999999,22.75708,926
3192,Harinashuli,132,87.485158,22.9158613,932
3193,Muraliganja,133,87.4938212,22.929393,932
3199,Brahmankonda,139,87.5136167,22.9267258,932
3200,Jaljala,1,87.51732740000001,23.2705284,934
3201,Angarsol,2,87.55132840000002,23.0679528,932
3202,Kalabere,3,87.5507104,23.0612465,932
3206,Mathuratapal,7,87.58777429999998,23.0766955,933
3208,Baidanga,9,87.5951834,23.0649023,933
3209,Lalki,10,87.59765290000001,23.0589869,933
3212,Tengrakhali,13,87.5778935,23.0557105,932
3214,Hajarapushkarini,15,87.5605971,23.0524695,932
3215,Hariharchak,16,87.54797590000003,23.0539583,932
3218,Saintara,19,87.5358765,23.043159,932
3219,Dharapat,20,87.53834920000001,23.034268,932
3224,Chakmurakhal,25,87.5729523,23.0467058,932
3225,Madanmohanpur,26,87.4170333,23.323959,934
3231,Ashude,32,87.57665829999998,23.0274151,932
3232,Pirit Chak,33,87.64948079999998,22.9406926,932
3236,Mohanchack,37,87.5581256,23.0077843,932
3240,Maji Puskarini,41,87.53773100000002,23.0097025,932
3241,Chhatra Krishnanagar,42,87.51732740000001,23.0145943,932
3243,Darapur,44,87.54082170000002,23.0015647,932
3244,Lego,45,87.5417885,22.9868362,932
3247,Gogara,48,87.58036390000002,23.0170536,932
3248,Ganti,49,87.59147899999998,23.015734,932
3250,Kotulpur,51,87.59394870000001,23.0127947,932
3252,Napukur,53,87.60752939999998,23.0561594,933
3254,Bhagalpur,55,87.62604209999998,23.0579253,933
3255,Kankara,56,87.6223402,23.0504287,933
3256,Kamarbere,57,87.6223402,23.038522600000004,933
3259,Patrabandh,60,87.63467879999996,23.0416832,933
3260,Hati,61,87.6408469,23.0521928,933
3261,Malakarpota,62,87.65071400000002,23.058292,933
3263,Madhuban,64,87.3525325,23.0878276,931
3267,Chhotapagla,68,87.65996260000001,23.0353599,933
3268,Lakshmanhati,69,87.66674359999998,23.0332271,933
3270,Malikpara,71,87.684,23.0185959,933
3273,Chakchand,74,87.69385779999998,23.006832,933
3276,Diachapri,77,87.66181209999998,22.9885039,933
3277,Laugram,78,87.6729074,23.002062,933
3278,Simdall,79,87.66181209999998,23.000411,933
3280,Sihas,81,87.6441615,23.0021855,933
3282,Barapushkarini,83,87.64948079999998,23.0121363,933
3283,Benerchak,84,87.65379709999998,23.0144325,933
3285,Haldarchak,86,87.6593461,23.021211800000003,933
3286,Mukha,87,87.64948079999998,23.024043,933
3287,Radhamadhabpur,88,87.43438359999998,23.0117904,932
3289,Khiri,90,87.62110609999998,23.0221329,932
3292,Beunchgere,93,87.6322113,22.9940201,932
3297,Banmukha,98,87.6309776,22.9806064,932
3298,Kulahar,99,87.619872,22.984906,932
3300,Muidara,101,87.6050605,22.9936141,932
3301,Shiromanipur,102,87.5964182,22.9979489,932
3303,Panahar,104,87.6001222,22.9816329,932
3304,Koyalpara,105,87.6112325,22.974358,932
3310,Baliarpur,111,87.5865393,22.9799394,932
3311,Adwaitabati,112,87.575423,22.9782822,932
3312,Radhadamodarpur,113,87.3686661,23.071728,931
3313,Gachhuya,114,87.5655396,22.9781315,932
3314,Rambakhra,115,87.5531823,22.9749655,932
3315,Chakdamukamu,116,87.5457663,22.9748515,932
3316,Panuya,117,87.53340379999999,22.9776372,932
3318,Malikota,119,87.54082170000002,22.9658452,932
3319,Aswinkota,120,87.53711290000003,22.9553695,932
3321,Keleguji,122,87.51732740000001,22.9491092,932
3323,Ramdiha,124,87.5235113,22.9417635,932
3324,Chorkola,125,87.53711290000003,22.937509,932
3327,Bhelaighata,128,87.542676,22.9264317,932
3329,Ismailchak,130,87.5655396,22.9245494,932
3330,Lankajol,131,87.5729523,22.9246623,932
3334,Patpur,135,87.06117720000002,23.2314562,928
3339,Baragopinathpur,140,87.5482385,22.9510758,932
3340,Algutina,141,87.5482385,22.9570293,932
3344,Baitalkuli,145,87.5655396,22.9721781,932
3349,Dhanjoga,150,87.59086160000004,22.9643768,932
3350,Shalukgere,151,87.59147899999998,22.9562,932
3356,Sihar,157,87.60629499999997,22.9326082,932
3358,Bhalukgere,159,87.6445473,22.9614581,932
3359,Chakchil,160,87.64701409999998,22.9525639,932
3360,Pirit Chak,161,87.64948079999998,22.9406926,932
3363,Jayrambati,164,87.61493540000002,22.9252952,932
3365,Malpur,166,87.2655636,23.1042076,930
3368,Baladwip,169,87.61246690000002,22.8925113,932
3369,Purbanarayanpur,170,87.627276,22.8957089,932
3370,Palashdanga,1,87.38851509999998,23.3993469,934
3377,Dihipara,8,87.4182728,23.4057881,934
3380,Bandirampur,11,87.42447,23.3746549,934
3381,Samantabandi,12,87.42447,23.3687052,934
3383,Dhulai,14,87.4133145,23.3640598,934
3384,Pathan Palasi,15,87.40215649999998,23.3653633,934
3385,Manushmari,16,87.3934761,23.3637323,934
3389,Pashchim Dubrajapur,20,87.3748698,23.3857334,934
3392,Chakai,23,87.36742530000002,23.3796595,934
3394,Merashole,25,87.3847941,23.3591259,934
3397,Radharamanpur,28,87.3637025,23.3691856,934
3398,Ulai,29,87.35501500000002,23.3645775,934
3403,Basunandanpur,34,87.3401183,23.355402,934
3405,Sheetaljor,36,87.35501500000002,23.3556532,934
3406,Kubirbandh,37,86.81450249999996,23.0615789,925
3410,Pashchim Nabasan,41,87.3525325,23.3347875,934
3411,Dubrajahati,42,87.359359,23.3371334,934
3414,Jaypur,45,87.44801149999998,23.0551658,932
3416,Bir singhapur,47,87.37983220000002,23.3352443,934
3417,Pashchim Patrahati,48,87.3847941,23.3383017,934
3418,Rup pal,49,87.39223590000002,23.34735,934
3426,Parbbatia,57,87.3897554,23.3235092,934
3430,Hamirhati,61,87.34880860000001,23.3272876,934
3432,Gopbandi,63,87.3500499,23.3139212,934
3433,Basumara,64,87.35749729999998,23.3170213,934
3435,Khausa,66,87.3717681,23.3135413,934
3438,Ratnapur,69,87.5531823,23.2011607,934
3443,Kochdihi,74,87.3686661,23.2919203,934
3444,Kesheshol,75,87.3823132,23.2876848,934
3446,Churamanipur,77,87.2444182,23.146987600000006,930
3447,Tiura,78,87.3736292,23.2682018,934
3449,Bhedomusal,80,87.4083557,23.268776000000006,934
3453,Sapuradihi,84,87.4331445,23.2870329,934
3454,Sonamukhi,85,87.4157938,23.3075757,934
3457,Lalbazar,88,87.5778935,22.9396217,932
3462,Madanmohanpur,93,87.4170333,23.323959,934
3465,Amshol,96,87.4046363,23.3445801,934
3467,Nachanhati,98,87.41951230000002,23.3477996,934
3468,Bondalhati,99,87.42818779999998,23.3345542,934
3473,Gopikantapur,104,87.42694859999997,23.3598211,934
3475,Keneti,106,87.56306839999998,23.1120333,933
3476,Nityanandapur,107,87.1927587,23.4561979,923
3477,Beloya,108,87.4713853,23.3566507,934
3483,Dhulat,114,87.4442952,23.3303539,934
3484,Purbba Patrahati,115,87.45110820000002,23.3267455,934
3487,Sonadwipa,118,87.4542046,23.300763,934
3488,Ban Paruliya,119,87.4442952,23.3006026,934
3491,Junsara,122,87.4634928,23.274879,934
3494,Dhondar,125,87.4839202,23.2923143,934
3497,Baruibera,128,87.4789689,23.3071115,934
3498,Purbba Nabasan,129,87.471541,23.3129429,934
3501,Telrui,132,87.4826825,23.3175841,934
3502,Isabpur,133,87.46658839999998,23.3307142,934
3506,Methra,137,87.4789689,23.3279378,934
3509,Palshura,140,87.51485369999996,23.3210702,934
3510,Ranpur,141,87.42447,23.2973047,934
3512,Panashol,143,87.50248280000002,23.3000478,934
3513,Gopinathapur(144),144,87.2182844,23.0587498,930
3515,Purbba Dubrajapur,146,87.49258370000003,23.29394,934
3516,Kundu Puskarini,147,87.5569146,23.0392447,932
3520,Dhan simla,151,87.4678266,23.2518893,934
3522,Pathara,153,87.3438429,23.255802300000006,934
3526,Shuksayer,157,87.28918540000002,23.2667734,934
3529,Khag Baikunthapur,160,87.25312629999998,23.246811800000003,934
3530,Hikimband,161,87.26929419999998,23.2366793,934
3532,Aralkola,163,87.29415689999998,23.2371072,934
3533,Panchal,164,87.2879425,23.2265873,931
3535,Bhat Puskarini,166,87.34880860000001,23.2320835,934
3539,Patharmara,170,87.3736292,23.2503502,934
3547,Ranibandh,178,86.7831085,22.8660646,925
3548,Chak Dhoyakure,179,87.44801149999998,23.2337174,934
3552,Manikbazar,183,87.3959564,23.2120396,934
3554,Narayansundari,185,87.3847941,23.2133431,934
3555,Tulardihi,186,87.3872748,23.201482100000003,934
3558,Uattar Patashpur,1,87.5346402,23.30948,934
3560,Dharimpur,3,87.5358765,23.2871842,934
3562,Ramsayer,5,87.51462690000002,23.2908982,934
3565,Jaljala,8,87.51732740000001,23.2705284,934
3570,Dhagaria,13,87.5061944,23.251012300000006,934
3576,Muktapur,19,87.32770079999997,23.3403176,929
3577,Khosalpur,20,87.5432941,23.2456428,934
3578,Nimainagar,21,87.5439122,23.255323,934
3579,Khamardihi,22,87.53340379999999,23.2573908,934
3580,Hadal,23,87.5241296,23.2728669,934
3584,Khanpara,27,87.5568898,23.277097,934
3585,Tasuli,28,87.56183270000002,23.2652714,934
3591,Netkhara,34,87.57171699999998,23.241619,934
3596,Benda,39,87.27748359999998,23.1350833,931
3600,Banshdaha,43,87.56862840000002,23.2155339,934
3602,Dakshin Patashpur,45,87.55194639999998,23.2115568,934
3605,Chak-Patrasayer,48,87.5445302,23.1906112,933
3606,Patrasayer,49,87.5445302,23.1906112,933
3607,Bamria,50,87.53711290000003,23.1756166,933
3608,Simulari,51,87.5507104,23.1802915,933
3611,Danna,54,87.56183270000002,23.187903,933
3613,Ratnapur,56,87.071792,23.1074434,930
3614,Sekendarchak,57,87.5704815,23.2044032,934
3615,Kantadighi,58,87.575423,23.2104307,934
3616,Belut,59,86.76426239999998,23.191447600000004,924
3626,Katora,69,87.6112325,23.2124638,934
3628,Lalbandh,71,87.1709576,22.9507812,927
3629,Purbanaldanga,72,87.6223402,23.2022156,933
3633,Biur,76,87.59394870000001,23.1913706,933
3635,Betur,78,87.57531569999998,23.1846578,933
3638,Chausima,81,87.5605971,23.1744924,933
3641,Balsipurbapara,84,87.55194639999998,23.157991100000004,933
3642,Nabakishore,85,87.5457663,23.1504555,933
3643,Majkuri,86,87.5457663,23.1415275,933
3644,Maheshnandi,87,87.53340379999999,23.1413355,933
3650,Karajbani,93,87.5235113,23.1768923,933
3652,Pashchim Naldanga,95,87.51114270000002,23.1856258,933
3653,Jamshol,96,87.4083557,23.1854633,933
3654,Churamanipur,97,87.2444182,23.146987600000006,930
3655,Jamkuri,98,87.4950586,23.166029100000006,933
3657,Padua,100,87.60752939999998,23.1811607,933
3658,Kakatia,101,87.5143882,23.2019666,933
3660,Radhadamodarpur,103,87.3686661,23.071728,931
3661,Dumni,104,87.4628736,23.2220547,934
3665,Bankishol,108,87.4678266,23.1685717,933
3666,Habibpushkarini,109,87.4678266,23.1566684,933
3668,Dharmapur,111,87.45172749999998,23.1430189,933
3669,Talsagra,112,87.46525539999998,23.1438755,933
3671,Salna,114,87.4690648,23.134369,933
3676,Khejurmura,119,87.4789689,23.1464306,933
3677,Telisayer,120,87.48980569999998,23.1526583,933
3680,Kantor Bankati,123,87.4938212,23.1198824,932
3681,Narangi,124,87.51237970000004,23.1276148,933
3683,Dhuma,126,87.51114270000002,23.1409874,933
3685,Hajrabandh,128,87.5160906,23.138089,933
3686,Bhubut,129,87.5235113,23.126301,933
3688,Panpuskarini,131,87.6593461,23.1075307,933
3689,Tilpur,132,87.52536629999999,23.1211219,933
3690,Chak kabir,133,87.5309308,23.1145124,933
3692,Satgechhe,135,87.43562270000002,23.1888832,933
3694,Kashthasangga,137,87.41433169999998,23.2097696,934
3695,Jamshola,138,87.4083557,23.1854633,933
3696,Nikanjapur,139,87.18964489999998,23.205531,930
3700,Dihilapur,143,87.4077358,23.1519765,933
3701,Kurchi,144,87.4145542,23.1483682,933
3702,Bidyanandapur,145,87.42199120000002,23.148489399999995,933
3703,Mancha,146,87.42447,23.1574571,933
3705,Bhairabpur,148,87.31403770000001,23.4278357,929
3707,Kushadwip,150,87.4331445,23.1501585,933
3710,Abhirambati,153,87.42013209999998,23.131348100000004,933
3713,Bandarkonda,156,86.82328919999998,22.9323313,925
3719,Somsar,2,87.6408469,23.224812,933
3720,Palashdanga,3,87.38851509999998,23.3993469,934
